{"fullgameschedule":{"lastUpdatedOn":"2018-01-28 6:31:53 PM","gameentry":[{"id":"30841","week":"18","scheduleStatus":"Normal","originalDate":null,"originalTime":null,"delayedOrPostponedReason":null,"date":"2016-01-09","time":"4:00PM","awayTeam":{"ID":"73","City":"Kansas City","Name":"Chiefs","Abbreviation":"KC"},"homeTeam":{"ID":"64","City":"Houston","Name":"Texans","Abbreviation":"HOU"},"location":"NRG Stadium"},{"id":"30842","week":"18","scheduleStatus":"Normal","originalDate":null,"originalTime":null,"delayedOrPostponedReason":null,"date":"2016-01-09","time":"4:00PM","awayTeam":{"ID":"59","City":"Pittsburgh","Name":"Steelers","Abbreviation":"PIT"},"homeTeam":{"ID":"57","City":"Cincinnati","Name":"Bengals","Abbreviation":"CIN"},"location":"Paul Brown Stadium"},{"id":"30843","week":"18","scheduleStatus":"Normal","originalDate":null,"originalTime":null,"delayedOrPostponedReason":null,"date":"2016-01-10","time":"4:30PM","awayTeam":{"ID":"79","City":"Seattle","Name":"Seahawks","Abbreviation":"SEA"},"homeTeam":{"ID":"63","City":"Minnesota","Name":"Vikings","Abbreviation":"MIN"},"location":"TCF Bank Stadium"},{"id":"30844","week":"18","scheduleStatus":"Normal","originalDate":null,"originalTime":null,"delayedOrPostponedReason":null,"date":"2016-01-10","time":"7:00PM","awayTeam":{"ID":"62","City":"Green Bay","Name":"Packers","Abbreviation":"GB"},"homeTeam":{"ID":"55","City":"Washington","Name":"Redskins","Abbreviation":"WAS"},"location":"FedEx Field"},{"id":"30845","week":"19","scheduleStatus":"Normal","originalDate":null,"originalTime":null,"delayedOrPostponedReason":null,"date":"2016-01-16","time":"4:30PM","awayTeam":{"ID":"73","City":"Kansas City","Name":"Chiefs","Abbreviation":"KC"},"homeTeam":{"ID":"50","City":"New England","Name":"Patriots","Abbreviation":"NE"},"location":"Gillette Stadium"},{"id":"30846","week":"19","scheduleStatus":"Normal","originalDate":null,"originalTime":null,"delayedOrPostponedReason":null,"date":"2016-01-16","time":"7:00PM","awayTeam":{"ID":"62","City":"Green Bay","Name":"Packers","Abbreviation":"GB"},"homeTeam":{"ID":"76","City":"Arizona","Name":"Cardinals","Abbreviation":"ARI"},"location":"University of Phoenix Stadium"},{"id":"30847","week":"19","scheduleStatus":"Normal","originalDate":null,"originalTime":null,"delayedOrPostponedReason":null,"date":"2016-01-17","time":"7:00PM","awayTeam":{"ID":"79","City":"Seattle","Name":"Seahawks","Abbreviation":"SEA"},"homeTeam":{"ID":"69","City":"Carolina","Name":"Panthers","Abbreviation":"CAR"},"location":"Bank of America Stadium"},{"id":"30848","week":"19","scheduleStatus":"Normal","originalDate":null,"originalTime":null,"delayedOrPostponedReason":null,"date":"2016-01-17","time":"7:30PM","awayTeam":{"ID":"59","City":"Pittsburgh","Name":"Steelers","Abbreviation":"PIT"},"homeTeam":{"ID":"72","City":"Denver","Name":"Broncos","Abbreviation":"DEN"},"location":"Sports Authority Field at Mile High"},{"id":"30850","week":"20","scheduleStatus":"Normal","originalDate":null,"originalTime":null,"delayedOrPostponedReason":null,"date":"2016-01-24","time":"7:00PM","awayTeam":{"ID":"76","City":"Arizona","Name":"Cardinals","Abbreviation":"ARI"},"homeTeam":{"ID":"69","City":"Carolina","Name":"Panthers","Abbreviation":"CAR"},"location":"Bank of America Stadium"},{"id":"30849","week":"20","scheduleStatus":"Normal","originalDate":null,"originalTime":null,"delayedOrPostponedReason":null,"date":"2016-01-24","time":"7:30PM","awayTeam":{"ID":"50","City":"New England","Name":"Patriots","Abbreviation":"NE"},"homeTeam":{"ID":"72","City":"Denver","Name":"Broncos","Abbreviation":"DEN"},"location":"Sports Authority Field at Mile High"},{"id":"30851","week":"22","scheduleStatus":"Normal","originalDate":null,"originalTime":null,"delayedOrPostponedReason":null,"date":"2016-02-07","time":"7:30PM","awayTeam":{"ID":"69","City":"Carolina","Name":"Panthers","Abbreviation":"CAR"},"homeTeam":{"ID":"72","City":"Denver","Name":"Broncos","Abbreviation":"DEN"},"location":"Sports Authority Field at Mile High"}]}}