{"fullgameschedule":{"lastUpdatedOn":"2018-02-04 10:44:15 PM","gameentry":[{"id":"43416","week":"18","scheduleStatus":"Normal","originalDate":null,"originalTime":null,"delayedOrPostponedReason":null,"date":"2018-01-06","time":"4:35PM","awayTeam":{"ID":"67","City":"Tennessee","Name":"Titans","Abbreviation":"TEN"},"homeTeam":{"ID":"73","City":"Kansas City","Name":"Chiefs","Abbreviation":"KC"},"location":"Arrowhead Stadium"},{"id":"43417","week":"18","scheduleStatus":"Normal","originalDate":null,"originalTime":null,"delayedOrPostponedReason":null,"date":"2018-01-06","time":"8:15PM","awayTeam":{"ID":"68","City":"Atlanta","Name":"Falcons","Abbreviation":"ATL"},"homeTeam":{"ID":"77","City":"Los Angeles","Name":"Rams","Abbreviation":"LA"},"location":"Los Angeles Memorial Coliseum"},{"id":"43418","week":"18","scheduleStatus":"Normal","originalDate":null,"originalTime":null,"delayedOrPostponedReason":null,"date":"2018-01-07","time":"1:05PM","awayTeam":{"ID":"48","City":"Buffalo","Name":"Bills","Abbreviation":"BUF"},"homeTeam":{"ID":"66","City":"Jacksonville","Name":"Jaguars","Abbreviation":"JAX"},"location":"EverBank Field"},{"id":"43419","week":"18","scheduleStatus":"Normal","originalDate":null,"originalTime":null,"delayedOrPostponedReason":null,"date":"2018-01-07","time":"4:40PM","awayTeam":{"ID":"69","City":"Carolina","Name":"Panthers","Abbreviation":"CAR"},"homeTeam":{"ID":"70","City":"New Orleans","Name":"Saints","Abbreviation":"NO"},"location":"Mercedes-Benz Stadium"},{"id":"43420","week":"19","scheduleStatus":"Normal","originalDate":null,"originalTime":null,"delayedOrPostponedReason":null,"date":"2018-01-13","time":"4:35PM","awayTeam":{"ID":"68","City":"Atlanta","Name":"Falcons","Abbreviation":"ATL"},"homeTeam":{"ID":"54","City":"Philadelphia","Name":"Eagles","Abbreviation":"PHI"},"location":"Lincoln Financial Field"},{"id":"43421","week":"19","scheduleStatus":"Normal","originalDate":null,"originalTime":null,"delayedOrPostponedReason":null,"date":"2018-01-13","time":"8:15PM","awayTeam":{"ID":"67","City":"Tennessee","Name":"Titans","Abbreviation":"TEN"},"homeTeam":{"ID":"50","City":"New England","Name":"Patriots","Abbreviation":"NE"},"location":"Gillette Stadium"},{"id":"43422","week":"19","scheduleStatus":"Normal","originalDate":null,"originalTime":null,"delayedOrPostponedReason":null,"date":"2018-01-14","time":"1:05PM","awayTeam":{"ID":"66","City":"Jacksonville","Name":"Jaguars","Abbreviation":"JAX"},"homeTeam":{"ID":"59","City":"Pittsburgh","Name":"Steelers","Abbreviation":"PIT"},"location":"Heinz Field"},{"id":"43423","week":"19","scheduleStatus":"Normal","originalDate":null,"originalTime":null,"delayedOrPostponedReason":null,"date":"2018-01-14","time":"4:40PM","awayTeam":{"ID":"70","City":"New Orleans","Name":"Saints","Abbreviation":"NO"},"homeTeam":{"ID":"63","City":"Minnesota","Name":"Vikings","Abbreviation":"MIN"},"location":"US Bank Stadium"},{"id":"43424","week":"20","scheduleStatus":"Normal","originalDate":null,"originalTime":null,"delayedOrPostponedReason":null,"date":"2018-01-21","time":"3:05PM","awayTeam":{"ID":"66","City":"Jacksonville","Name":"Jaguars","Abbreviation":"JAX"},"homeTeam":{"ID":"50","City":"New England","Name":"Patriots","Abbreviation":"NE"},"location":"Gillette Stadium"},{"id":"43425","week":"20","scheduleStatus":"Normal","originalDate":null,"originalTime":null,"delayedOrPostponedReason":null,"date":"2018-01-21","time":"6:40PM","awayTeam":{"ID":"63","City":"Minnesota","Name":"Vikings","Abbreviation":"MIN"},"homeTeam":{"ID":"54","City":"Philadelphia","Name":"Eagles","Abbreviation":"PHI"},"location":"Lincoln Financial Field"},{"id":"43426","week":"22","scheduleStatus":"Normal","originalDate":null,"originalTime":null,"delayedOrPostponedReason":null,"date":"2018-02-04","time":"6:30PM","awayTeam":{"ID":"54","City":"Philadelphia","Name":"Eagles","Abbreviation":"PHI"},"homeTeam":{"ID":"50","City":"New England","Name":"Patriots","Abbreviation":"NE"},"location":"Gillette Stadium"}]}}