{"fullgameschedule":{"lastUpdatedOn":"2018-01-25 2:56:35 AM","gameentry":[{"id":"32579","week":"1","scheduleStatus":"Normal","originalDate":null,"originalTime":null,"delayedOrPostponedReason":null,"date":"2015-09-10","time":"7:30PM","awayTeam":{"ID":"59","City":"Pittsburgh","Name":"Steelers","Abbreviation":"PIT"},"homeTeam":{"ID":"50","City":"New England","Name":"Patriots","Abbreviation":"NE"},"location":"Gillette Stadium"},{"id":"30575","week":"1","scheduleStatus":"Normal","originalDate":null,"originalTime":null,"delayedOrPostponedReason":null,"date":"2015-09-13","time":"1:00PM","awayTeam":{"ID":"62","City":"Green Bay","Name":"Packers","Abbreviation":"GB"},"homeTeam":{"ID":"60","City":"Chicago","Name":"Bears","Abbreviation":"CHI"},"location":"Soldier Field"},{"id":"30577","week":"1","scheduleStatus":"Normal","originalDate":null,"originalTime":null,"delayedOrPostponedReason":null,"date":"2015-09-13","time":"1:00PM","awayTeam":{"ID":"69","City":"Carolina","Name":"Panthers","Abbreviation":"CAR"},"homeTeam":{"ID":"66","City":"Jacksonville","Name":"Jaguars","Abbreviation":"JAX"},"location":"EverBank Field"},{"id":"30578","week":"1","scheduleStatus":"Normal","originalDate":null,"originalTime":null,"delayedOrPostponedReason":null,"date":"2015-09-13","time":"1:00PM","awayTeam":{"ID":"58","City":"Cleveland","Name":"Browns","Abbreviation":"CLE"},"homeTeam":{"ID":"51","City":"New York","Name":"Jets","Abbreviation":"NYJ"},"location":"MetLife Stadium"},{"id":"30579","week":"1","scheduleStatus":"Normal","originalDate":null,"originalTime":null,"delayedOrPostponedReason":null,"date":"2015-09-13","time":"1:00PM","awayTeam":{"ID":"79","City":"Seattle","Name":"Seahawks","Abbreviation":"SEA"},"homeTeam":{"ID":"77","City":"St. Louis","Name":"Rams","Abbreviation":"STL"},"location":"Edward Jones Dome"},{"id":"30840","week":"1","scheduleStatus":"Normal","originalDate":null,"originalTime":null,"delayedOrPostponedReason":null,"date":"2015-09-13","time":"1:00PM","awayTeam":{"ID":"73","City":"Kansas City","Name":"Chiefs","Abbreviation":"KC"},"homeTeam":{"ID":"64","City":"Houston","Name":"Texans","Abbreviation":"HOU"},"location":"NRG Stadium"},{"id":"32550","week":"1","scheduleStatus":"Normal","originalDate":null,"originalTime":null,"delayedOrPostponedReason":null,"date":"2015-09-13","time":"1:00PM","awayTeam":{"ID":"61","City":"Detroit","Name":"Lions","Abbreviation":"DET"},"homeTeam":{"ID":"75","City":"San Diego","Name":"Chargers","Abbreviation":"SD"},"location":"Qualcomm Stadium"},{"id":"32558","week":"1","scheduleStatus":"Normal","originalDate":null,"originalTime":null,"delayedOrPostponedReason":null,"date":"2015-09-13","time":"1:00PM","awayTeam":{"ID":"70","City":"New Orleans","Name":"Saints","Abbreviation":"NO"},"homeTeam":{"ID":"76","City":"Arizona","Name":"Cardinals","Abbreviation":"ARI"},"location":"University of Phoenix Stadium"},{"id":"33902","week":"1","scheduleStatus":"Normal","originalDate":null,"originalTime":null,"delayedOrPostponedReason":null,"date":"2015-09-13","time":"1:00PM","awayTeam":{"ID":"65","City":"Indianapolis","Name":"Colts","Abbreviation":"IND"},"homeTeam":{"ID":"48","City":"Buffalo","Name":"Bills","Abbreviation":"BUF"},"location":"New Era Field"},{"id":"30584","week":"1","scheduleStatus":"Normal","originalDate":null,"originalTime":null,"delayedOrPostponedReason":null,"date":"2015-09-13","time":"4:30PM","awayTeam":{"ID":"57","City":"Cincinnati","Name":"Bengals","Abbreviation":"CIN"},"homeTeam":{"ID":"74","City":"Oakland","Name":"Raiders","Abbreviation":"OAK"},"location":"O.co Coliseum"},{"id":"30585","week":"1","scheduleStatus":"Normal","originalDate":null,"originalTime":null,"delayedOrPostponedReason":null,"date":"2015-09-13","time":"4:30PM","awayTeam":{"ID":"67","City":"Tennessee","Name":"Titans","Abbreviation":"TEN"},"homeTeam":{"ID":"71","City":"Tampa Bay","Name":"Buccaneers","Abbreviation":"TB"},"location":"Raymond James Stadium"},{"id":"30836","week":"1","scheduleStatus":"Normal","originalDate":null,"originalTime":null,"delayedOrPostponedReason":null,"date":"2015-09-13","time":"4:30PM","awayTeam":{"ID":"56","City":"Baltimore","Name":"Ravens","Abbreviation":"BAL"},"homeTeam":{"ID":"72","City":"Denver","Name":"Broncos","Abbreviation":"DEN"},"location":"Sports Authority Field at Mile High"},{"id":"32561","week":"1","scheduleStatus":"Normal","originalDate":null,"originalTime":null,"delayedOrPostponedReason":null,"date":"2015-09-13","time":"7:30PM","awayTeam":{"ID":"53","City":"New York","Name":"Giants","Abbreviation":"NYG"},"homeTeam":{"ID":"52","City":"Dallas","Name":"Cowboys","Abbreviation":"DAL"},"location":"AT&T Stadium"},{"id":"32573","week":"1","scheduleStatus":"Normal","originalDate":null,"originalTime":null,"delayedOrPostponedReason":null,"date":"2015-09-13","time":"7:30PM","awayTeam":{"ID":"49","City":"Miami","Name":"Dolphins","Abbreviation":"MIA"},"homeTeam":{"ID":"55","City":"Washington","Name":"Redskins","Abbreviation":"WAS"},"location":"FedEx Field"},{"id":"30588","week":"1","scheduleStatus":"Normal","originalDate":null,"originalTime":null,"delayedOrPostponedReason":null,"date":"2015-09-14","time":"8:00PM","awayTeam":{"ID":"63","City":"Minnesota","Name":"Vikings","Abbreviation":"MIN"},"homeTeam":{"ID":"78","City":"San Francisco","Name":"49ers","Abbreviation":"SF"},"location":"Levi's Stadium"},{"id":"32584","week":"1","scheduleStatus":"Normal","originalDate":null,"originalTime":null,"delayedOrPostponedReason":null,"date":"2015-09-14","time":"8:00PM","awayTeam":{"ID":"54","City":"Philadelphia","Name":"Eagles","Abbreviation":"PHI"},"homeTeam":{"ID":"68","City":"Atlanta","Name":"Falcons","Abbreviation":"ATL"},"location":"Georgia Dome"},{"id":"32625","week":"2","scheduleStatus":"Normal","originalDate":null,"originalTime":null,"delayedOrPostponedReason":null,"date":"2015-09-17","time":"7:30PM","awayTeam":{"ID":"72","City":"Denver","Name":"Broncos","Abbreviation":"DEN"},"homeTeam":{"ID":"73","City":"Kansas City","Name":"Chiefs","Abbreviation":"KC"},"location":"Arrowhead Stadium"},{"id":"30591","week":"2","scheduleStatus":"Normal","originalDate":null,"originalTime":null,"delayedOrPostponedReason":null,"date":"2015-09-20","time":"1:00PM","awayTeam":{"ID":"64","City":"Houston","Name":"Texans","Abbreviation":"HOU"},"homeTeam":{"ID":"69","City":"Carolina","Name":"Panthers","Abbreviation":"CAR"},"location":"Bank of America Stadium"},{"id":"32547","week":"2","scheduleStatus":"Normal","originalDate":null,"originalTime":null,"delayedOrPostponedReason":null,"date":"2015-09-20","time":"1:00PM","awayTeam":{"ID":"71","City":"Tampa Bay","Name":"Buccaneers","Abbreviation":"TB"},"homeTeam":{"ID":"70","City":"New Orleans","Name":"Saints","Abbreviation":"NO"},"location":"Mercedes-Benz Stadium"},{"id":"32589","week":"2","scheduleStatus":"Normal","originalDate":null,"originalTime":null,"delayedOrPostponedReason":null,"date":"2015-09-20","time":"1:00PM","awayTeam":{"ID":"50","City":"New England","Name":"Patriots","Abbreviation":"NE"},"homeTeam":{"ID":"48","City":"Buffalo","Name":"Bills","Abbreviation":"BUF"},"location":"New Era Field"},{"id":"32600","week":"2","scheduleStatus":"Normal","originalDate":null,"originalTime":null,"delayedOrPostponedReason":null,"date":"2015-09-20","time":"1:00PM","awayTeam":{"ID":"52","City":"Dallas","Name":"Cowboys","Abbreviation":"DAL"},"homeTeam":{"ID":"54","City":"Philadelphia","Name":"Eagles","Abbreviation":"PHI"},"location":"Lincoln Financial Field"},{"id":"33862","week":"2","scheduleStatus":"Normal","originalDate":null,"originalTime":null,"delayedOrPostponedReason":null,"date":"2015-09-20","time":"1:00PM","awayTeam":{"ID":"76","City":"Arizona","Name":"Cardinals","Abbreviation":"ARI"},"homeTeam":{"ID":"60","City":"Chicago","Name":"Bears","Abbreviation":"CHI"},"location":"Soldier Field"},{"id":"33864","week":"2","scheduleStatus":"Normal","originalDate":null,"originalTime":null,"delayedOrPostponedReason":null,"date":"2015-09-20","time":"1:00PM","awayTeam":{"ID":"78","City":"San Francisco","Name":"49ers","Abbreviation":"SF"},"homeTeam":{"ID":"59","City":"Pittsburgh","Name":"Steelers","Abbreviation":"PIT"},"location":"Heinz Field"},{"id":"33928","week":"2","scheduleStatus":"Normal","originalDate":null,"originalTime":null,"delayedOrPostponedReason":null,"date":"2015-09-20","time":"1:00PM","awayTeam":{"ID":"67","City":"Tennessee","Name":"Titans","Abbreviation":"TEN"},"homeTeam":{"ID":"58","City":"Cleveland","Name":"Browns","Abbreviation":"CLE"},"location":"FirstEnergy Stadium"},{"id":"33870","week":"2","scheduleStatus":"Normal","originalDate":null,"originalTime":null,"delayedOrPostponedReason":null,"date":"2015-09-20","time":"3:00PM","awayTeam":{"ID":"56","City":"Baltimore","Name":"Ravens","Abbreviation":"BAL"},"homeTeam":{"ID":"74","City":"Oakland","Name":"Raiders","Abbreviation":"OAK"},"location":"O.co Coliseum"},{"id":"33914","week":"2","scheduleStatus":"Normal","originalDate":null,"originalTime":null,"delayedOrPostponedReason":null,"date":"2015-09-20","time":"3:00PM","awayTeam":{"ID":"77","City":"St. Louis","Name":"Rams","Abbreviation":"STL"},"homeTeam":{"ID":"55","City":"Washington","Name":"Redskins","Abbreviation":"WAS"},"location":"FedEx Field"},{"id":"30600","week":"2","scheduleStatus":"Normal","originalDate":null,"originalTime":null,"delayedOrPostponedReason":null,"date":"2015-09-20","time":"4:00PM","awayTeam":{"ID":"49","City":"Miami","Name":"Dolphins","Abbreviation":"MIA"},"homeTeam":{"ID":"66","City":"Jacksonville","Name":"Jaguars","Abbreviation":"JAX"},"location":"EverBank Field"},{"id":"33924","week":"2","scheduleStatus":"Normal","originalDate":null,"originalTime":null,"delayedOrPostponedReason":null,"date":"2015-09-20","time":"7:00PM","awayTeam":{"ID":"61","City":"Detroit","Name":"Lions","Abbreviation":"DET"},"homeTeam":{"ID":"63","City":"Minnesota","Name":"Vikings","Abbreviation":"MIN"},"location":"TCF Bank Stadium"},{"id":"32562","week":"2","scheduleStatus":"Normal","originalDate":null,"originalTime":null,"delayedOrPostponedReason":null,"date":"2015-09-20","time":"7:30PM","awayTeam":{"ID":"68","City":"Atlanta","Name":"Falcons","Abbreviation":"ATL"},"homeTeam":{"ID":"53","City":"New York","Name":"Giants","Abbreviation":"NYG"},"location":"MetLife Stadium"},{"id":"33888","week":"2","scheduleStatus":"Normal","originalDate":null,"originalTime":null,"delayedOrPostponedReason":null,"date":"2015-09-20","time":"7:30PM","awayTeam":{"ID":"75","City":"San Diego","Name":"Chargers","Abbreviation":"SD"},"homeTeam":{"ID":"57","City":"Cincinnati","Name":"Bengals","Abbreviation":"CIN"},"location":"Paul Brown Stadium"},{"id":"30603","week":"2","scheduleStatus":"Normal","originalDate":null,"originalTime":null,"delayedOrPostponedReason":null,"date":"2015-09-20","time":"8:30PM","awayTeam":{"ID":"79","City":"Seattle","Name":"Seahawks","Abbreviation":"SEA"},"homeTeam":{"ID":"62","City":"Green Bay","Name":"Packers","Abbreviation":"GB"},"location":"Lambeau Field"},{"id":"33872","week":"2","scheduleStatus":"Normal","originalDate":null,"originalTime":null,"delayedOrPostponedReason":null,"date":"2015-09-21","time":"7:30PM","awayTeam":{"ID":"51","City":"New York","Name":"Jets","Abbreviation":"NYJ"},"homeTeam":{"ID":"65","City":"Indianapolis","Name":"Colts","Abbreviation":"IND"},"location":"Lucas Oil Stadium"},{"id":"32574","week":"3","scheduleStatus":"Normal","originalDate":null,"originalTime":null,"delayedOrPostponedReason":null,"date":"2015-09-24","time":"7:30PM","awayTeam":{"ID":"55","City":"Washington","Name":"Redskins","Abbreviation":"WAS"},"homeTeam":{"ID":"53","City":"New York","Name":"Giants","Abbreviation":"NYG"},"location":"MetLife Stadium"},{"id":"30606","week":"3","scheduleStatus":"Normal","originalDate":null,"originalTime":null,"delayedOrPostponedReason":null,"date":"2015-09-27","time":"1:00PM","awayTeam":{"ID":"57","City":"Cincinnati","Name":"Bengals","Abbreviation":"CIN"},"homeTeam":{"ID":"56","City":"Baltimore","Name":"Ravens","Abbreviation":"BAL"},"location":"M&T Bank Stadium"},{"id":"30608","week":"3","scheduleStatus":"Normal","originalDate":null,"originalTime":null,"delayedOrPostponedReason":null,"date":"2015-09-27","time":"1:00PM","awayTeam":{"ID":"74","City":"Oakland","Name":"Raiders","Abbreviation":"OAK"},"homeTeam":{"ID":"58","City":"Cleveland","Name":"Browns","Abbreviation":"CLE"},"location":"FirstEnergy Stadium"},{"id":"30609","week":"3","scheduleStatus":"Normal","originalDate":null,"originalTime":null,"delayedOrPostponedReason":null,"date":"2015-09-27","time":"1:00PM","awayTeam":{"ID":"68","City":"Atlanta","Name":"Falcons","Abbreviation":"ATL"},"homeTeam":{"ID":"52","City":"Dallas","Name":"Cowboys","Abbreviation":"DAL"},"location":"AT&T Stadium"},{"id":"30610","week":"3","scheduleStatus":"Normal","originalDate":null,"originalTime":null,"delayedOrPostponedReason":null,"date":"2015-09-27","time":"1:00PM","awayTeam":{"ID":"71","City":"Tampa Bay","Name":"Buccaneers","Abbreviation":"TB"},"homeTeam":{"ID":"64","City":"Houston","Name":"Texans","Abbreviation":"HOU"},"location":"NRG Stadium"},{"id":"30611","week":"3","scheduleStatus":"Normal","originalDate":null,"originalTime":null,"delayedOrPostponedReason":null,"date":"2015-09-27","time":"1:00PM","awayTeam":{"ID":"75","City":"San Diego","Name":"Chargers","Abbreviation":"SD"},"homeTeam":{"ID":"63","City":"Minnesota","Name":"Vikings","Abbreviation":"MIN"},"location":"TCF Bank Stadium"},{"id":"30612","week":"3","scheduleStatus":"Normal","originalDate":null,"originalTime":null,"delayedOrPostponedReason":null,"date":"2015-09-27","time":"1:00PM","awayTeam":{"ID":"66","City":"Jacksonville","Name":"Jaguars","Abbreviation":"JAX"},"homeTeam":{"ID":"50","City":"New England","Name":"Patriots","Abbreviation":"NE"},"location":"Gillette Stadium"},{"id":"30613","week":"3","scheduleStatus":"Normal","originalDate":null,"originalTime":null,"delayedOrPostponedReason":null,"date":"2015-09-27","time":"1:00PM","awayTeam":{"ID":"54","City":"Philadelphia","Name":"Eagles","Abbreviation":"PHI"},"homeTeam":{"ID":"51","City":"New York","Name":"Jets","Abbreviation":"NYJ"},"location":"MetLife Stadium"},{"id":"30614","week":"3","scheduleStatus":"Normal","originalDate":null,"originalTime":null,"delayedOrPostponedReason":null,"date":"2015-09-27","time":"1:00PM","awayTeam":{"ID":"59","City":"Pittsburgh","Name":"Steelers","Abbreviation":"PIT"},"homeTeam":{"ID":"77","City":"St. Louis","Name":"Rams","Abbreviation":"STL"},"location":"Edward Jones Dome"},{"id":"30616","week":"3","scheduleStatus":"Normal","originalDate":null,"originalTime":null,"delayedOrPostponedReason":null,"date":"2015-09-27","time":"4:00PM","awayTeam":{"ID":"78","City":"San Francisco","Name":"49ers","Abbreviation":"SF"},"homeTeam":{"ID":"76","City":"Arizona","Name":"Cardinals","Abbreviation":"ARI"},"location":"University of Phoenix Stadium"},{"id":"30617","week":"3","scheduleStatus":"Normal","originalDate":null,"originalTime":null,"delayedOrPostponedReason":null,"date":"2015-09-27","time":"4:30PM","awayTeam":{"ID":"48","City":"Buffalo","Name":"Bills","Abbreviation":"BUF"},"homeTeam":{"ID":"49","City":"Miami","Name":"Dolphins","Abbreviation":"MIA"},"location":"Sun Life Stadium"},{"id":"30618","week":"3","scheduleStatus":"Normal","originalDate":null,"originalTime":null,"delayedOrPostponedReason":null,"date":"2015-09-27","time":"4:30PM","awayTeam":{"ID":"60","City":"Chicago","Name":"Bears","Abbreviation":"CHI"},"homeTeam":{"ID":"79","City":"Seattle","Name":"Seahawks","Abbreviation":"SEA"},"location":"CenturyLink Field"},{"id":"32571","week":"3","scheduleStatus":"Normal","originalDate":null,"originalTime":null,"delayedOrPostponedReason":null,"date":"2015-09-27","time":"7:30PM","awayTeam":{"ID":"72","City":"Denver","Name":"Broncos","Abbreviation":"DEN"},"homeTeam":{"ID":"61","City":"Detroit","Name":"Lions","Abbreviation":"DET"},"location":"Ford Field"},{"id":"32591","week":"3","scheduleStatus":"Normal","originalDate":null,"originalTime":null,"delayedOrPostponedReason":null,"date":"2015-09-27","time":"7:30PM","awayTeam":{"ID":"65","City":"Indianapolis","Name":"Colts","Abbreviation":"IND"},"homeTeam":{"ID":"67","City":"Tennessee","Name":"Titans","Abbreviation":"TEN"},"location":"Nissan Stadium"},{"id":"33911","week":"3","scheduleStatus":"Normal","originalDate":null,"originalTime":null,"delayedOrPostponedReason":null,"date":"2015-09-27","time":"7:30PM","awayTeam":{"ID":"70","City":"New Orleans","Name":"Saints","Abbreviation":"NO"},"homeTeam":{"ID":"69","City":"Carolina","Name":"Panthers","Abbreviation":"CAR"},"location":"Bank of America Stadium"},{"id":"30620","week":"3","scheduleStatus":"Normal","originalDate":null,"originalTime":null,"delayedOrPostponedReason":null,"date":"2015-09-28","time":"8:30PM","awayTeam":{"ID":"73","City":"Kansas City","Name":"Chiefs","Abbreviation":"KC"},"homeTeam":{"ID":"62","City":"Green Bay","Name":"Packers","Abbreviation":"GB"},"location":"Lambeau Field"},{"id":"30621","week":"4","scheduleStatus":"Normal","originalDate":null,"originalTime":null,"delayedOrPostponedReason":null,"date":"2015-10-01","time":"8:30PM","awayTeam":{"ID":"56","City":"Baltimore","Name":"Ravens","Abbreviation":"BAL"},"homeTeam":{"ID":"59","City":"Pittsburgh","Name":"Steelers","Abbreviation":"PIT"},"location":"Heinz Field"},{"id":"32567","week":"4","scheduleStatus":"Normal","originalDate":null,"originalTime":null,"delayedOrPostponedReason":null,"date":"2015-10-04","time":"1:00PM","awayTeam":{"ID":"53","City":"New York","Name":"Giants","Abbreviation":"NYG"},"homeTeam":{"ID":"48","City":"Buffalo","Name":"Bills","Abbreviation":"BUF"},"location":"New Era Field"},{"id":"32586","week":"4","scheduleStatus":"Normal","originalDate":null,"originalTime":null,"delayedOrPostponedReason":null,"date":"2015-10-04","time":"1:00PM","awayTeam":{"ID":"73","City":"Kansas City","Name":"Chiefs","Abbreviation":"KC"},"homeTeam":{"ID":"57","City":"Cincinnati","Name":"Bengals","Abbreviation":"CIN"},"location":"Paul Brown Stadium"},{"id":"32605","week":"4","scheduleStatus":"Normal","originalDate":null,"originalTime":null,"delayedOrPostponedReason":null,"date":"2015-10-04","time":"1:00PM","awayTeam":{"ID":"77","City":"St. Louis","Name":"Rams","Abbreviation":"STL"},"homeTeam":{"ID":"76","City":"Arizona","Name":"Cardinals","Abbreviation":"ARI"},"location":"University of Phoenix Stadium"},{"id":"32613","week":"4","scheduleStatus":"Normal","originalDate":null,"originalTime":null,"delayedOrPostponedReason":null,"date":"2015-10-04","time":"1:00PM","awayTeam":{"ID":"69","City":"Carolina","Name":"Panthers","Abbreviation":"CAR"},"homeTeam":{"ID":"71","City":"Tampa Bay","Name":"Buccaneers","Abbreviation":"TB"},"location":"Raymond James Stadium"},{"id":"33873","week":"4","scheduleStatus":"Normal","originalDate":null,"originalTime":null,"delayedOrPostponedReason":null,"date":"2015-10-04","time":"1:00PM","awayTeam":{"ID":"66","City":"Jacksonville","Name":"Jaguars","Abbreviation":"JAX"},"homeTeam":{"ID":"65","City":"Indianapolis","Name":"Colts","Abbreviation":"IND"},"location":"Lucas Oil Stadium"},{"id":"33900","week":"4","scheduleStatus":"Normal","originalDate":null,"originalTime":null,"delayedOrPostponedReason":null,"date":"2015-10-04","time":"1:00PM","awayTeam":{"ID":"64","City":"Houston","Name":"Texans","Abbreviation":"HOU"},"homeTeam":{"ID":"68","City":"Atlanta","Name":"Falcons","Abbreviation":"ATL"},"location":"Georgia Dome"},{"id":"33869","week":"4","scheduleStatus":"Normal","originalDate":null,"originalTime":null,"delayedOrPostponedReason":null,"date":"2015-10-04","time":"3:00PM","awayTeam":{"ID":"74","City":"Oakland","Name":"Raiders","Abbreviation":"OAK"},"homeTeam":{"ID":"60","City":"Chicago","Name":"Bears","Abbreviation":"CHI"},"location":"Soldier Field"},{"id":"33897","week":"4","scheduleStatus":"Normal","originalDate":null,"originalTime":null,"delayedOrPostponedReason":null,"date":"2015-10-04","time":"3:00PM","awayTeam":{"ID":"54","City":"Philadelphia","Name":"Eagles","Abbreviation":"PHI"},"homeTeam":{"ID":"55","City":"Washington","Name":"Redskins","Abbreviation":"WAS"},"location":"FedEx Field"},{"id":"30630","week":"4","scheduleStatus":"Normal","originalDate":null,"originalTime":null,"delayedOrPostponedReason":null,"date":"2015-10-04","time":"4:00PM","awayTeam":{"ID":"58","City":"Cleveland","Name":"Browns","Abbreviation":"CLE"},"homeTeam":{"ID":"75","City":"San Diego","Name":"Chargers","Abbreviation":"SD"},"location":"Qualcomm Stadium"},{"id":"30633","week":"4","scheduleStatus":"Normal","originalDate":null,"originalTime":null,"delayedOrPostponedReason":null,"date":"2015-10-04","time":"4:30PM","awayTeam":{"ID":"62","City":"Green Bay","Name":"Packers","Abbreviation":"GB"},"homeTeam":{"ID":"78","City":"San Francisco","Name":"49ers","Abbreviation":"SF"},"location":"Levi's Stadium"},{"id":"30833","week":"4","scheduleStatus":"Normal","originalDate":null,"originalTime":null,"delayedOrPostponedReason":null,"date":"2015-10-04","time":"4:30PM","awayTeam":{"ID":"63","City":"Minnesota","Name":"Vikings","Abbreviation":"MIN"},"homeTeam":{"ID":"72","City":"Denver","Name":"Broncos","Abbreviation":"DEN"},"location":"Sports Authority Field at Mile High"},{"id":"32572","week":"4","scheduleStatus":"Normal","originalDate":null,"originalTime":null,"delayedOrPostponedReason":null,"date":"2015-10-04","time":"7:30PM","awayTeam":{"ID":"51","City":"New York","Name":"Jets","Abbreviation":"NYJ"},"homeTeam":{"ID":"49","City":"Miami","Name":"Dolphins","Abbreviation":"MIA"},"location":"Sun Life Stadium"},{"id":"32535","week":"4","scheduleStatus":"Normal","originalDate":null,"originalTime":null,"delayedOrPostponedReason":null,"date":"2015-10-04","time":"8:30PM","awayTeam":{"ID":"52","City":"Dallas","Name":"Cowboys","Abbreviation":"DAL"},"homeTeam":{"ID":"70","City":"New Orleans","Name":"Saints","Abbreviation":"NO"},"location":"Mercedes-Benz Stadium"},{"id":"30635","week":"4","scheduleStatus":"Normal","originalDate":null,"originalTime":null,"delayedOrPostponedReason":null,"date":"2015-10-05","time":"8:30PM","awayTeam":{"ID":"61","City":"Detroit","Name":"Lions","Abbreviation":"DET"},"homeTeam":{"ID":"79","City":"Seattle","Name":"Seahawks","Abbreviation":"SEA"},"location":"CenturyLink Field"},{"id":"30636","week":"5","scheduleStatus":"Normal","originalDate":null,"originalTime":null,"delayedOrPostponedReason":null,"date":"2015-10-08","time":"8:30PM","awayTeam":{"ID":"65","City":"Indianapolis","Name":"Colts","Abbreviation":"IND"},"homeTeam":{"ID":"64","City":"Houston","Name":"Texans","Abbreviation":"HOU"},"location":"NRG Stadium"},{"id":"30638","week":"5","scheduleStatus":"Normal","originalDate":null,"originalTime":null,"delayedOrPostponedReason":null,"date":"2015-10-11","time":"1:00PM","awayTeam":{"ID":"58","City":"Cleveland","Name":"Browns","Abbreviation":"CLE"},"homeTeam":{"ID":"56","City":"Baltimore","Name":"Ravens","Abbreviation":"BAL"},"location":"M&T Bank Stadium"},{"id":"30639","week":"5","scheduleStatus":"Normal","originalDate":null,"originalTime":null,"delayedOrPostponedReason":null,"date":"2015-10-11","time":"1:00PM","awayTeam":{"ID":"79","City":"Seattle","Name":"Seahawks","Abbreviation":"SEA"},"homeTeam":{"ID":"57","City":"Cincinnati","Name":"Bengals","Abbreviation":"CIN"},"location":"Paul Brown Stadium"},{"id":"30641","week":"5","scheduleStatus":"Normal","originalDate":null,"originalTime":null,"delayedOrPostponedReason":null,"date":"2015-10-11","time":"1:00PM","awayTeam":{"ID":"60","City":"Chicago","Name":"Bears","Abbreviation":"CHI"},"homeTeam":{"ID":"73","City":"Kansas City","Name":"Chiefs","Abbreviation":"KC"},"location":"Arrowhead Stadium"},{"id":"30644","week":"5","scheduleStatus":"Normal","originalDate":null,"originalTime":null,"delayedOrPostponedReason":null,"date":"2015-10-11","time":"1:00PM","awayTeam":{"ID":"48","City":"Buffalo","Name":"Bills","Abbreviation":"BUF"},"homeTeam":{"ID":"67","City":"Tennessee","Name":"Titans","Abbreviation":"TEN"},"location":"Nissan Stadium"},{"id":"32548","week":"5","scheduleStatus":"Normal","originalDate":null,"originalTime":null,"delayedOrPostponedReason":null,"date":"2015-10-11","time":"1:00PM","awayTeam":{"ID":"70","City":"New Orleans","Name":"Saints","Abbreviation":"NO"},"homeTeam":{"ID":"54","City":"Philadelphia","Name":"Eagles","Abbreviation":"PHI"},"location":"Lincoln Financial Field"},{"id":"32565","week":"5","scheduleStatus":"Normal","originalDate":null,"originalTime":null,"delayedOrPostponedReason":null,"date":"2015-10-11","time":"1:00PM","awayTeam":{"ID":"66","City":"Jacksonville","Name":"Jaguars","Abbreviation":"JAX"},"homeTeam":{"ID":"71","City":"Tampa Bay","Name":"Buccaneers","Abbreviation":"TB"},"location":"Raymond James Stadium"},{"id":"32606","week":"5","scheduleStatus":"Normal","originalDate":null,"originalTime":null,"delayedOrPostponedReason":null,"date":"2015-10-11","time":"1:00PM","awayTeam":{"ID":"77","City":"St. Louis","Name":"Rams","Abbreviation":"STL"},"homeTeam":{"ID":"62","City":"Green Bay","Name":"Packers","Abbreviation":"GB"},"location":"Lambeau Field"},{"id":"33860","week":"5","scheduleStatus":"Normal","originalDate":null,"originalTime":null,"delayedOrPostponedReason":null,"date":"2015-10-11","time":"1:00PM","awayTeam":{"ID":"55","City":"Washington","Name":"Redskins","Abbreviation":"WAS"},"homeTeam":{"ID":"68","City":"Atlanta","Name":"Falcons","Abbreviation":"ATL"},"location":"Georgia Dome"},{"id":"33868","week":"5","scheduleStatus":"Normal","originalDate":null,"originalTime":null,"delayedOrPostponedReason":null,"date":"2015-10-11","time":"3:00PM","awayTeam":{"ID":"72","City":"Denver","Name":"Broncos","Abbreviation":"DEN"},"homeTeam":{"ID":"74","City":"Oakland","Name":"Raiders","Abbreviation":"OAK"},"location":"O.co Coliseum"},{"id":"33939","week":"5","scheduleStatus":"Normal","originalDate":null,"originalTime":null,"delayedOrPostponedReason":null,"date":"2015-10-11","time":"7:00PM","awayTeam":{"ID":"78","City":"San Francisco","Name":"49ers","Abbreviation":"SF"},"homeTeam":{"ID":"53","City":"New York","Name":"Giants","Abbreviation":"NYG"},"location":"MetLife Stadium"},{"id":"32603","week":"5","scheduleStatus":"Normal","originalDate":null,"originalTime":null,"delayedOrPostponedReason":null,"date":"2015-10-11","time":"7:30PM","awayTeam":{"ID":"76","City":"Arizona","Name":"Cardinals","Abbreviation":"ARI"},"homeTeam":{"ID":"61","City":"Detroit","Name":"Lions","Abbreviation":"DET"},"location":"Ford Field"},{"id":"33883","week":"5","scheduleStatus":"Normal","originalDate":null,"originalTime":null,"delayedOrPostponedReason":null,"date":"2015-10-11","time":"7:30PM","awayTeam":{"ID":"50","City":"New England","Name":"Patriots","Abbreviation":"NE"},"homeTeam":{"ID":"52","City":"Dallas","Name":"Cowboys","Abbreviation":"DAL"},"location":"AT&T Stadium"},{"id":"32566","week":"5","scheduleStatus":"Normal","originalDate":null,"originalTime":null,"delayedOrPostponedReason":null,"date":"2015-10-12","time":"7:30PM","awayTeam":{"ID":"59","City":"Pittsburgh","Name":"Steelers","Abbreviation":"PIT"},"homeTeam":{"ID":"75","City":"San Diego","Name":"Chargers","Abbreviation":"SD"},"location":"Qualcomm Stadium"},{"id":"30650","week":"6","scheduleStatus":"Normal","originalDate":null,"originalTime":null,"delayedOrPostponedReason":null,"date":"2015-10-15","time":"8:30PM","awayTeam":{"ID":"68","City":"Atlanta","Name":"Falcons","Abbreviation":"ATL"},"homeTeam":{"ID":"70","City":"New Orleans","Name":"Saints","Abbreviation":"NO"},"location":"Mercedes-Benz Stadium"},{"id":"30651","week":"6","scheduleStatus":"Normal","originalDate":null,"originalTime":null,"delayedOrPostponedReason":null,"date":"2015-10-18","time":"1:00PM","awayTeam":{"ID":"57","City":"Cincinnati","Name":"Bengals","Abbreviation":"CIN"},"homeTeam":{"ID":"48","City":"Buffalo","Name":"Bills","Abbreviation":"BUF"},"location":"New Era Field"},{"id":"30652","week":"6","scheduleStatus":"Normal","originalDate":null,"originalTime":null,"delayedOrPostponedReason":null,"date":"2015-10-18","time":"1:00PM","awayTeam":{"ID":"72","City":"Denver","Name":"Broncos","Abbreviation":"DEN"},"homeTeam":{"ID":"58","City":"Cleveland","Name":"Browns","Abbreviation":"CLE"},"location":"FirstEnergy Stadium"},{"id":"30654","week":"6","scheduleStatus":"Normal","originalDate":null,"originalTime":null,"delayedOrPostponedReason":null,"date":"2015-10-18","time":"1:00PM","awayTeam":{"ID":"64","City":"Houston","Name":"Texans","Abbreviation":"HOU"},"homeTeam":{"ID":"66","City":"Jacksonville","Name":"Jaguars","Abbreviation":"JAX"},"location":"EverBank Field"},{"id":"30656","week":"6","scheduleStatus":"Normal","originalDate":null,"originalTime":null,"delayedOrPostponedReason":null,"date":"2015-10-18","time":"1:00PM","awayTeam":{"ID":"55","City":"Washington","Name":"Redskins","Abbreviation":"WAS"},"homeTeam":{"ID":"51","City":"New York","Name":"Jets","Abbreviation":"NYJ"},"location":"MetLife Stadium"},{"id":"30657","week":"6","scheduleStatus":"Normal","originalDate":null,"originalTime":null,"delayedOrPostponedReason":null,"date":"2015-10-18","time":"1:00PM","awayTeam":{"ID":"76","City":"Arizona","Name":"Cardinals","Abbreviation":"ARI"},"homeTeam":{"ID":"59","City":"Pittsburgh","Name":"Steelers","Abbreviation":"PIT"},"location":"Heinz Field"},{"id":"30658","week":"6","scheduleStatus":"Normal","originalDate":null,"originalTime":null,"delayedOrPostponedReason":null,"date":"2015-10-18","time":"1:00PM","awayTeam":{"ID":"49","City":"Miami","Name":"Dolphins","Abbreviation":"MIA"},"homeTeam":{"ID":"67","City":"Tennessee","Name":"Titans","Abbreviation":"TEN"},"location":"Nissan Stadium"},{"id":"33896","week":"6","scheduleStatus":"Normal","originalDate":null,"originalTime":null,"delayedOrPostponedReason":null,"date":"2015-10-18","time":"1:00PM","awayTeam":{"ID":"73","City":"Kansas City","Name":"Chiefs","Abbreviation":"KC"},"homeTeam":{"ID":"63","City":"Minnesota","Name":"Vikings","Abbreviation":"MIN"},"location":"TCF Bank Stadium"},{"id":"30659","week":"6","scheduleStatus":"Normal","originalDate":null,"originalTime":null,"delayedOrPostponedReason":null,"date":"2015-10-18","time":"4:00PM","awayTeam":{"ID":"69","City":"Carolina","Name":"Panthers","Abbreviation":"CAR"},"homeTeam":{"ID":"79","City":"Seattle","Name":"Seahawks","Abbreviation":"SEA"},"location":"CenturyLink Field"},{"id":"30661","week":"6","scheduleStatus":"Normal","originalDate":null,"originalTime":null,"delayedOrPostponedReason":null,"date":"2015-10-18","time":"4:30PM","awayTeam":{"ID":"56","City":"Baltimore","Name":"Ravens","Abbreviation":"BAL"},"homeTeam":{"ID":"78","City":"San Francisco","Name":"49ers","Abbreviation":"SF"},"location":"Levi's Stadium"},{"id":"33894","week":"6","scheduleStatus":"Normal","originalDate":null,"originalTime":null,"delayedOrPostponedReason":null,"date":"2015-10-18","time":"7:30PM","awayTeam":{"ID":"75","City":"San Diego","Name":"Chargers","Abbreviation":"SD"},"homeTeam":{"ID":"62","City":"Green Bay","Name":"Packers","Abbreviation":"GB"},"location":"Lambeau Field"},{"id":"33921","week":"6","scheduleStatus":"Normal","originalDate":null,"originalTime":null,"delayedOrPostponedReason":null,"date":"2015-10-18","time":"7:30PM","awayTeam":{"ID":"60","City":"Chicago","Name":"Bears","Abbreviation":"CHI"},"homeTeam":{"ID":"61","City":"Detroit","Name":"Lions","Abbreviation":"DET"},"location":"Ford Field"},{"id":"30662","week":"6","scheduleStatus":"Normal","originalDate":null,"originalTime":null,"delayedOrPostponedReason":null,"date":"2015-10-18","time":"8:30PM","awayTeam":{"ID":"50","City":"New England","Name":"Patriots","Abbreviation":"NE"},"homeTeam":{"ID":"65","City":"Indianapolis","Name":"Colts","Abbreviation":"IND"},"location":"Lucas Oil Stadium"},{"id":"33934","week":"6","scheduleStatus":"Normal","originalDate":null,"originalTime":null,"delayedOrPostponedReason":null,"date":"2015-10-19","time":"7:30PM","awayTeam":{"ID":"53","City":"New York","Name":"Giants","Abbreviation":"NYG"},"homeTeam":{"ID":"54","City":"Philadelphia","Name":"Eagles","Abbreviation":"PHI"},"location":"Lincoln Financial Field"},{"id":"33875","week":"7","scheduleStatus":"Normal","originalDate":null,"originalTime":null,"delayedOrPostponedReason":null,"date":"2015-10-22","time":"1:00PM","awayTeam":{"ID":"79","City":"Seattle","Name":"Seahawks","Abbreviation":"SEA"},"homeTeam":{"ID":"78","City":"San Francisco","Name":"49ers","Abbreviation":"SF"},"location":"Levi's Stadium"},{"id":"30667","week":"7","scheduleStatus":"Normal","originalDate":null,"originalTime":null,"delayedOrPostponedReason":null,"date":"2015-10-25","time":"1:00PM","awayTeam":{"ID":"70","City":"New Orleans","Name":"Saints","Abbreviation":"NO"},"homeTeam":{"ID":"65","City":"Indianapolis","Name":"Colts","Abbreviation":"IND"},"location":"Lucas Oil Stadium"},{"id":"30668","week":"7","scheduleStatus":"Normal","originalDate":null,"originalTime":null,"delayedOrPostponedReason":null,"date":"2015-10-25","time":"1:00PM","awayTeam":{"ID":"59","City":"Pittsburgh","Name":"Steelers","Abbreviation":"PIT"},"homeTeam":{"ID":"73","City":"Kansas City","Name":"Chiefs","Abbreviation":"KC"},"location":"Arrowhead Stadium"},{"id":"30670","week":"7","scheduleStatus":"Normal","originalDate":null,"originalTime":null,"delayedOrPostponedReason":null,"date":"2015-10-25","time":"1:00PM","awayTeam":{"ID":"51","City":"New York","Name":"Jets","Abbreviation":"NYJ"},"homeTeam":{"ID":"50","City":"New England","Name":"Patriots","Abbreviation":"NE"},"location":"Gillette Stadium"},{"id":"30673","week":"7","scheduleStatus":"Normal","originalDate":null,"originalTime":null,"delayedOrPostponedReason":null,"date":"2015-10-25","time":"1:00PM","awayTeam":{"ID":"71","City":"Tampa Bay","Name":"Buccaneers","Abbreviation":"TB"},"homeTeam":{"ID":"55","City":"Washington","Name":"Redskins","Abbreviation":"WAS"},"location":"FedEx Field"},{"id":"30838","week":"7","scheduleStatus":"Normal","originalDate":null,"originalTime":null,"delayedOrPostponedReason":null,"date":"2015-10-25","time":"1:00PM","awayTeam":{"ID":"63","City":"Minnesota","Name":"Vikings","Abbreviation":"MIN"},"homeTeam":{"ID":"61","City":"Detroit","Name":"Lions","Abbreviation":"DET"},"location":"Ford Field"},{"id":"32594","week":"7","scheduleStatus":"Normal","originalDate":null,"originalTime":null,"delayedOrPostponedReason":null,"date":"2015-10-25","time":"1:00PM","awayTeam":{"ID":"58","City":"Cleveland","Name":"Browns","Abbreviation":"CLE"},"homeTeam":{"ID":"77","City":"St. Louis","Name":"Rams","Abbreviation":"STL"},"location":"Edward Jones Dome"},{"id":"33931","week":"7","scheduleStatus":"Normal","originalDate":null,"originalTime":null,"delayedOrPostponedReason":null,"date":"2015-10-25","time":"1:00PM","awayTeam":{"ID":"64","City":"Houston","Name":"Texans","Abbreviation":"HOU"},"homeTeam":{"ID":"49","City":"Miami","Name":"Dolphins","Abbreviation":"MIA"},"location":"Sun Life Stadium"},{"id":"33867","week":"7","scheduleStatus":"Normal","originalDate":null,"originalTime":null,"delayedOrPostponedReason":null,"date":"2015-10-25","time":"3:00PM","awayTeam":{"ID":"74","City":"Oakland","Name":"Raiders","Abbreviation":"OAK"},"homeTeam":{"ID":"75","City":"San Diego","Name":"Chargers","Abbreviation":"SD"},"location":"Qualcomm Stadium"},{"id":"33926","week":"7","scheduleStatus":"Normal","originalDate":null,"originalTime":null,"delayedOrPostponedReason":null,"date":"2015-10-25","time":"3:00PM","awayTeam":{"ID":"48","City":"Buffalo","Name":"Bills","Abbreviation":"BUF"},"homeTeam":{"ID":"66","City":"Jacksonville","Name":"Jaguars","Abbreviation":"JAX"},"location":"EverBank Field"},{"id":"30675","week":"7","scheduleStatus":"Normal","originalDate":null,"originalTime":null,"delayedOrPostponedReason":null,"date":"2015-10-25","time":"4:30PM","awayTeam":{"ID":"52","City":"Dallas","Name":"Cowboys","Abbreviation":"DAL"},"homeTeam":{"ID":"53","City":"New York","Name":"Giants","Abbreviation":"NYG"},"location":"MetLife Stadium"},{"id":"33861","week":"7","scheduleStatus":"Normal","originalDate":null,"originalTime":null,"delayedOrPostponedReason":null,"date":"2015-10-25","time":"7:30PM","awayTeam":{"ID":"68","City":"Atlanta","Name":"Falcons","Abbreviation":"ATL"},"homeTeam":{"ID":"67","City":"Tennessee","Name":"Titans","Abbreviation":"TEN"},"location":"Nissan Stadium"},{"id":"30676","week":"7","scheduleStatus":"Normal","originalDate":null,"originalTime":null,"delayedOrPostponedReason":null,"date":"2015-10-25","time":"8:30PM","awayTeam":{"ID":"54","City":"Philadelphia","Name":"Eagles","Abbreviation":"PHI"},"homeTeam":{"ID":"69","City":"Carolina","Name":"Panthers","Abbreviation":"CAR"},"location":"Bank of America Stadium"},{"id":"30677","week":"7","scheduleStatus":"Normal","originalDate":null,"originalTime":null,"delayedOrPostponedReason":null,"date":"2015-10-26","time":"8:30PM","awayTeam":{"ID":"56","City":"Baltimore","Name":"Ravens","Abbreviation":"BAL"},"homeTeam":{"ID":"76","City":"Arizona","Name":"Cardinals","Abbreviation":"ARI"},"location":"University of Phoenix Stadium"},{"id":"30839","week":"8","scheduleStatus":"Normal","originalDate":null,"originalTime":null,"delayedOrPostponedReason":null,"date":"2015-10-29","time":"8:30PM","awayTeam":{"ID":"49","City":"Miami","Name":"Dolphins","Abbreviation":"MIA"},"homeTeam":{"ID":"50","City":"New England","Name":"Patriots","Abbreviation":"NE"},"location":"Gillette Stadium"},{"id":"30679","week":"8","scheduleStatus":"Normal","originalDate":null,"originalTime":null,"delayedOrPostponedReason":null,"date":"2015-11-01","time":"9:30AM","awayTeam":{"ID":"61","City":"Detroit","Name":"Lions","Abbreviation":"DET"},"homeTeam":{"ID":"73","City":"Kansas City","Name":"Chiefs","Abbreviation":"KC"},"location":"Arrowhead Stadium"},{"id":"30681","week":"8","scheduleStatus":"Normal","originalDate":null,"originalTime":null,"delayedOrPostponedReason":null,"date":"2015-11-01","time":"1:00PM","awayTeam":{"ID":"75","City":"San Diego","Name":"Chargers","Abbreviation":"SD"},"homeTeam":{"ID":"56","City":"Baltimore","Name":"Ravens","Abbreviation":"BAL"},"location":"M&T Bank Stadium"},{"id":"30684","week":"8","scheduleStatus":"Normal","originalDate":null,"originalTime":null,"delayedOrPostponedReason":null,"date":"2015-11-01","time":"1:00PM","awayTeam":{"ID":"67","City":"Tennessee","Name":"Titans","Abbreviation":"TEN"},"homeTeam":{"ID":"64","City":"Houston","Name":"Texans","Abbreviation":"HOU"},"location":"NRG Stadium"},{"id":"30686","week":"8","scheduleStatus":"Normal","originalDate":null,"originalTime":null,"delayedOrPostponedReason":null,"date":"2015-11-01","time":"1:00PM","awayTeam":{"ID":"57","City":"Cincinnati","Name":"Bengals","Abbreviation":"CIN"},"homeTeam":{"ID":"59","City":"Pittsburgh","Name":"Steelers","Abbreviation":"PIT"},"location":"Heinz Field"},{"id":"32542","week":"8","scheduleStatus":"Normal","originalDate":null,"originalTime":null,"delayedOrPostponedReason":null,"date":"2015-11-01","time":"2:00PM","awayTeam":{"ID":"53","City":"New York","Name":"Giants","Abbreviation":"NYG"},"homeTeam":{"ID":"70","City":"New Orleans","Name":"Saints","Abbreviation":"NO"},"location":"Mercedes-Benz Stadium"},{"id":"32624","week":"8","scheduleStatus":"Normal","originalDate":null,"originalTime":null,"delayedOrPostponedReason":null,"date":"2015-11-01","time":"2:00PM","awayTeam":{"ID":"76","City":"Arizona","Name":"Cardinals","Abbreviation":"ARI"},"homeTeam":{"ID":"58","City":"Cleveland","Name":"Browns","Abbreviation":"CLE"},"location":"FirstEnergy Stadium"},{"id":"33923","week":"8","scheduleStatus":"Normal","originalDate":null,"originalTime":null,"delayedOrPostponedReason":null,"date":"2015-11-01","time":"2:00PM","awayTeam":{"ID":"63","City":"Minnesota","Name":"Vikings","Abbreviation":"MIN"},"homeTeam":{"ID":"60","City":"Chicago","Name":"Bears","Abbreviation":"CHI"},"location":"Soldier Field"},{"id":"32626","week":"8","scheduleStatus":"Normal","originalDate":null,"originalTime":null,"delayedOrPostponedReason":null,"date":"2015-11-01","time":"4:00PM","awayTeam":{"ID":"51","City":"New York","Name":"Jets","Abbreviation":"NYJ"},"homeTeam":{"ID":"74","City":"Oakland","Name":"Raiders","Abbreviation":"OAK"},"location":"O.co Coliseum"},{"id":"30689","week":"8","scheduleStatus":"Normal","originalDate":null,"originalTime":null,"delayedOrPostponedReason":null,"date":"2015-11-01","time":"4:30PM","awayTeam":{"ID":"79","City":"Seattle","Name":"Seahawks","Abbreviation":"SEA"},"homeTeam":{"ID":"52","City":"Dallas","Name":"Cowboys","Abbreviation":"DAL"},"location":"AT&T Stadium"},{"id":"30690","week":"8","scheduleStatus":"Normal","originalDate":null,"originalTime":null,"delayedOrPostponedReason":null,"date":"2015-11-01","time":"8:30PM","awayTeam":{"ID":"62","City":"Green Bay","Name":"Packers","Abbreviation":"GB"},"homeTeam":{"ID":"72","City":"Denver","Name":"Broncos","Abbreviation":"DEN"},"location":"Sports Authority Field at Mile High"},{"id":"32559","week":"8","scheduleStatus":"Normal","originalDate":null,"originalTime":null,"delayedOrPostponedReason":null,"date":"2015-11-01","time":"8:30PM","awayTeam":{"ID":"71","City":"Tampa Bay","Name":"Buccaneers","Abbreviation":"TB"},"homeTeam":{"ID":"68","City":"Atlanta","Name":"Falcons","Abbreviation":"ATL"},"location":"Georgia Dome"},{"id":"33937","week":"8","scheduleStatus":"Normal","originalDate":null,"originalTime":null,"delayedOrPostponedReason":null,"date":"2015-11-01","time":"8:30PM","awayTeam":{"ID":"78","City":"San Francisco","Name":"49ers","Abbreviation":"SF"},"homeTeam":{"ID":"77","City":"St. Louis","Name":"Rams","Abbreviation":"STL"},"location":"Edward Jones Dome"},{"id":"33912","week":"8","scheduleStatus":"Normal","originalDate":null,"originalTime":null,"delayedOrPostponedReason":null,"date":"2015-11-02","time":"8:30PM","awayTeam":{"ID":"65","City":"Indianapolis","Name":"Colts","Abbreviation":"IND"},"homeTeam":{"ID":"69","City":"Carolina","Name":"Panthers","Abbreviation":"CAR"},"location":"Bank of America Stadium"},{"id":"30692","week":"9","scheduleStatus":"Normal","originalDate":null,"originalTime":null,"delayedOrPostponedReason":null,"date":"2015-11-05","time":"8:30PM","awayTeam":{"ID":"58","City":"Cleveland","Name":"Browns","Abbreviation":"CLE"},"homeTeam":{"ID":"57","City":"Cincinnati","Name":"Bengals","Abbreviation":"CIN"},"location":"Paul Brown Stadium"},{"id":"30693","week":"9","scheduleStatus":"Normal","originalDate":null,"originalTime":null,"delayedOrPostponedReason":null,"date":"2015-11-08","time":"1:00PM","awayTeam":{"ID":"49","City":"Miami","Name":"Dolphins","Abbreviation":"MIA"},"homeTeam":{"ID":"48","City":"Buffalo","Name":"Bills","Abbreviation":"BUF"},"location":"New Era Field"},{"id":"30696","week":"9","scheduleStatus":"Normal","originalDate":null,"originalTime":null,"delayedOrPostponedReason":null,"date":"2015-11-08","time":"1:00PM","awayTeam":{"ID":"55","City":"Washington","Name":"Redskins","Abbreviation":"WAS"},"homeTeam":{"ID":"50","City":"New England","Name":"Patriots","Abbreviation":"NE"},"location":"Gillette Stadium"},{"id":"32549","week":"9","scheduleStatus":"Normal","originalDate":null,"originalTime":null,"delayedOrPostponedReason":null,"date":"2015-11-08","time":"2:00PM","awayTeam":{"ID":"67","City":"Tennessee","Name":"Titans","Abbreviation":"TEN"},"homeTeam":{"ID":"70","City":"New Orleans","Name":"Saints","Abbreviation":"NO"},"location":"Mercedes-Benz Stadium"},{"id":"32608","week":"9","scheduleStatus":"Normal","originalDate":null,"originalTime":null,"delayedOrPostponedReason":null,"date":"2015-11-08","time":"2:00PM","awayTeam":{"ID":"77","City":"St. Louis","Name":"Rams","Abbreviation":"STL"},"homeTeam":{"ID":"63","City":"Minnesota","Name":"Vikings","Abbreviation":"MIN"},"location":"TCF Bank Stadium"},{"id":"33876","week":"9","scheduleStatus":"Normal","originalDate":null,"originalTime":null,"delayedOrPostponedReason":null,"date":"2015-11-08","time":"2:00PM","awayTeam":{"ID":"74","City":"Oakland","Name":"Raiders","Abbreviation":"OAK"},"homeTeam":{"ID":"59","City":"Pittsburgh","Name":"Steelers","Abbreviation":"PIT"},"location":"Heinz Field"},{"id":"33884","week":"9","scheduleStatus":"Normal","originalDate":null,"originalTime":null,"delayedOrPostponedReason":null,"date":"2015-11-08","time":"2:00PM","awayTeam":{"ID":"62","City":"Green Bay","Name":"Packers","Abbreviation":"GB"},"homeTeam":{"ID":"69","City":"Carolina","Name":"Panthers","Abbreviation":"CAR"},"location":"Bank of America Stadium"},{"id":"32628","week":"9","scheduleStatus":"Normal","originalDate":null,"originalTime":null,"delayedOrPostponedReason":null,"date":"2015-11-08","time":"4:00PM","awayTeam":{"ID":"66","City":"Jacksonville","Name":"Jaguars","Abbreviation":"JAX"},"homeTeam":{"ID":"51","City":"New York","Name":"Jets","Abbreviation":"NYJ"},"location":"MetLife Stadium"},{"id":"33895","week":"9","scheduleStatus":"Normal","originalDate":null,"originalTime":null,"delayedOrPostponedReason":null,"date":"2015-11-08","time":"4:00PM","awayTeam":{"ID":"68","City":"Atlanta","Name":"Falcons","Abbreviation":"ATL"},"homeTeam":{"ID":"78","City":"San Francisco","Name":"49ers","Abbreviation":"SF"},"location":"Levi's Stadium"},{"id":"32622","week":"9","scheduleStatus":"Normal","originalDate":null,"originalTime":null,"delayedOrPostponedReason":null,"date":"2015-11-08","time":"8:30PM","awayTeam":{"ID":"53","City":"New York","Name":"Giants","Abbreviation":"NYG"},"homeTeam":{"ID":"71","City":"Tampa Bay","Name":"Buccaneers","Abbreviation":"TB"},"location":"Raymond James Stadium"},{"id":"33874","week":"9","scheduleStatus":"Normal","originalDate":null,"originalTime":null,"delayedOrPostponedReason":null,"date":"2015-11-08","time":"8:30PM","awayTeam":{"ID":"72","City":"Denver","Name":"Broncos","Abbreviation":"DEN"},"homeTeam":{"ID":"65","City":"Indianapolis","Name":"Colts","Abbreviation":"IND"},"location":"Lucas Oil Stadium"},{"id":"33935","week":"9","scheduleStatus":"Normal","originalDate":null,"originalTime":null,"delayedOrPostponedReason":null,"date":"2015-11-08","time":"8:30PM","awayTeam":{"ID":"54","City":"Philadelphia","Name":"Eagles","Abbreviation":"PHI"},"homeTeam":{"ID":"52","City":"Dallas","Name":"Cowboys","Abbreviation":"DAL"},"location":"AT&T Stadium"},{"id":"33927","week":"9","scheduleStatus":"Normal","originalDate":null,"originalTime":null,"delayedOrPostponedReason":null,"date":"2015-11-09","time":"4:00PM","awayTeam":{"ID":"60","City":"Chicago","Name":"Bears","Abbreviation":"CHI"},"homeTeam":{"ID":"75","City":"San Diego","Name":"Chargers","Abbreviation":"SD"},"location":"Qualcomm Stadium"},{"id":"30705","week":"10","scheduleStatus":"Normal","originalDate":null,"originalTime":null,"delayedOrPostponedReason":null,"date":"2015-11-12","time":"8:30PM","awayTeam":{"ID":"48","City":"Buffalo","Name":"Bills","Abbreviation":"BUF"},"homeTeam":{"ID":"51","City":"New York","Name":"Jets","Abbreviation":"NYJ"},"location":"MetLife Stadium"},{"id":"30706","week":"10","scheduleStatus":"Normal","originalDate":null,"originalTime":null,"delayedOrPostponedReason":null,"date":"2015-11-15","time":"1:00PM","awayTeam":{"ID":"66","City":"Jacksonville","Name":"Jaguars","Abbreviation":"JAX"},"homeTeam":{"ID":"56","City":"Baltimore","Name":"Ravens","Abbreviation":"BAL"},"location":"M&T Bank Stadium"},{"id":"30707","week":"10","scheduleStatus":"Normal","originalDate":null,"originalTime":null,"delayedOrPostponedReason":null,"date":"2015-11-15","time":"1:00PM","awayTeam":{"ID":"61","City":"Detroit","Name":"Lions","Abbreviation":"DET"},"homeTeam":{"ID":"62","City":"Green Bay","Name":"Packers","Abbreviation":"GB"},"location":"Lambeau Field"},{"id":"30708","week":"10","scheduleStatus":"Normal","originalDate":null,"originalTime":null,"delayedOrPostponedReason":null,"date":"2015-11-15","time":"1:00PM","awayTeam":{"ID":"49","City":"Miami","Name":"Dolphins","Abbreviation":"MIA"},"homeTeam":{"ID":"54","City":"Philadelphia","Name":"Eagles","Abbreviation":"PHI"},"location":"Lincoln Financial Field"},{"id":"30709","week":"10","scheduleStatus":"Normal","originalDate":null,"originalTime":null,"delayedOrPostponedReason":null,"date":"2015-11-15","time":"1:00PM","awayTeam":{"ID":"58","City":"Cleveland","Name":"Browns","Abbreviation":"CLE"},"homeTeam":{"ID":"59","City":"Pittsburgh","Name":"Steelers","Abbreviation":"PIT"},"location":"Heinz Field"},{"id":"30711","week":"10","scheduleStatus":"Normal","originalDate":null,"originalTime":null,"delayedOrPostponedReason":null,"date":"2015-11-15","time":"1:00PM","awayTeam":{"ID":"52","City":"Dallas","Name":"Cowboys","Abbreviation":"DAL"},"homeTeam":{"ID":"71","City":"Tampa Bay","Name":"Buccaneers","Abbreviation":"TB"},"location":"Raymond James Stadium"},{"id":"30712","week":"10","scheduleStatus":"Normal","originalDate":null,"originalTime":null,"delayedOrPostponedReason":null,"date":"2015-11-15","time":"1:00PM","awayTeam":{"ID":"69","City":"Carolina","Name":"Panthers","Abbreviation":"CAR"},"homeTeam":{"ID":"67","City":"Tennessee","Name":"Titans","Abbreviation":"TEN"},"location":"Nissan Stadium"},{"id":"32545","week":"10","scheduleStatus":"Normal","originalDate":null,"originalTime":null,"delayedOrPostponedReason":null,"date":"2015-11-15","time":"2:00PM","awayTeam":{"ID":"70","City":"New Orleans","Name":"Saints","Abbreviation":"NO"},"homeTeam":{"ID":"55","City":"Washington","Name":"Redskins","Abbreviation":"WAS"},"location":"FedEx Field"},{"id":"30714","week":"10","scheduleStatus":"Normal","originalDate":null,"originalTime":null,"delayedOrPostponedReason":null,"date":"2015-11-15","time":"4:00PM","awayTeam":{"ID":"63","City":"Minnesota","Name":"Vikings","Abbreviation":"MIN"},"homeTeam":{"ID":"74","City":"Oakland","Name":"Raiders","Abbreviation":"OAK"},"location":"O.co Coliseum"},{"id":"30715","week":"10","scheduleStatus":"Normal","originalDate":null,"originalTime":null,"delayedOrPostponedReason":null,"date":"2015-11-15","time":"4:30PM","awayTeam":{"ID":"73","City":"Kansas City","Name":"Chiefs","Abbreviation":"KC"},"homeTeam":{"ID":"72","City":"Denver","Name":"Broncos","Abbreviation":"DEN"},"location":"Sports Authority Field at Mile High"},{"id":"30716","week":"10","scheduleStatus":"Normal","originalDate":null,"originalTime":null,"delayedOrPostponedReason":null,"date":"2015-11-15","time":"4:30PM","awayTeam":{"ID":"50","City":"New England","Name":"Patriots","Abbreviation":"NE"},"homeTeam":{"ID":"53","City":"New York","Name":"Giants","Abbreviation":"NYG"},"location":"MetLife Stadium"},{"id":"32609","week":"10","scheduleStatus":"Normal","originalDate":null,"originalTime":null,"delayedOrPostponedReason":null,"date":"2015-11-15","time":"8:30PM","awayTeam":{"ID":"60","City":"Chicago","Name":"Bears","Abbreviation":"CHI"},"homeTeam":{"ID":"77","City":"St. Louis","Name":"Rams","Abbreviation":"STL"},"location":"Edward Jones Dome"},{"id":"33933","week":"10","scheduleStatus":"Normal","originalDate":null,"originalTime":null,"delayedOrPostponedReason":null,"date":"2015-11-15","time":"8:30PM","awayTeam":{"ID":"76","City":"Arizona","Name":"Cardinals","Abbreviation":"ARI"},"homeTeam":{"ID":"79","City":"Seattle","Name":"Seahawks","Abbreviation":"SEA"},"location":"CenturyLink Field"},{"id":"30718","week":"10","scheduleStatus":"Normal","originalDate":null,"originalTime":null,"delayedOrPostponedReason":null,"date":"2015-11-16","time":"8:30PM","awayTeam":{"ID":"64","City":"Houston","Name":"Texans","Abbreviation":"HOU"},"homeTeam":{"ID":"57","City":"Cincinnati","Name":"Bengals","Abbreviation":"CIN"},"location":"Paul Brown Stadium"},{"id":"30719","week":"11","scheduleStatus":"Normal","originalDate":null,"originalTime":null,"delayedOrPostponedReason":null,"date":"2015-11-19","time":"8:30PM","awayTeam":{"ID":"67","City":"Tennessee","Name":"Titans","Abbreviation":"TEN"},"homeTeam":{"ID":"66","City":"Jacksonville","Name":"Jaguars","Abbreviation":"JAX"},"location":"EverBank Field"},{"id":"30720","week":"11","scheduleStatus":"Normal","originalDate":null,"originalTime":null,"delayedOrPostponedReason":null,"date":"2015-11-22","time":"1:00PM","awayTeam":{"ID":"65","City":"Indianapolis","Name":"Colts","Abbreviation":"IND"},"homeTeam":{"ID":"68","City":"Atlanta","Name":"Falcons","Abbreviation":"ATL"},"location":"Georgia Dome"},{"id":"30725","week":"11","scheduleStatus":"Normal","originalDate":null,"originalTime":null,"delayedOrPostponedReason":null,"date":"2015-11-22","time":"1:00PM","awayTeam":{"ID":"51","City":"New York","Name":"Jets","Abbreviation":"NYJ"},"homeTeam":{"ID":"64","City":"Houston","Name":"Texans","Abbreviation":"HOU"},"location":"NRG Stadium"},{"id":"30726","week":"11","scheduleStatus":"Normal","originalDate":null,"originalTime":null,"delayedOrPostponedReason":null,"date":"2015-11-22","time":"1:00PM","awayTeam":{"ID":"52","City":"Dallas","Name":"Cowboys","Abbreviation":"DAL"},"homeTeam":{"ID":"49","City":"Miami","Name":"Dolphins","Abbreviation":"MIA"},"location":"Sun Life Stadium"},{"id":"32578","week":"11","scheduleStatus":"Normal","originalDate":null,"originalTime":null,"delayedOrPostponedReason":null,"date":"2015-11-22","time":"2:00PM","awayTeam":{"ID":"74","City":"Oakland","Name":"Raiders","Abbreviation":"OAK"},"homeTeam":{"ID":"61","City":"Detroit","Name":"Lions","Abbreviation":"DET"},"location":"Ford Field"},{"id":"32582","week":"11","scheduleStatus":"Normal","originalDate":null,"originalTime":null,"delayedOrPostponedReason":null,"date":"2015-11-22","time":"2:00PM","awayTeam":{"ID":"62","City":"Green Bay","Name":"Packers","Abbreviation":"GB"},"homeTeam":{"ID":"63","City":"Minnesota","Name":"Vikings","Abbreviation":"MIN"},"location":"TCF Bank Stadium"},{"id":"33879","week":"11","scheduleStatus":"Normal","originalDate":null,"originalTime":null,"delayedOrPostponedReason":null,"date":"2015-11-22","time":"2:00PM","awayTeam":{"ID":"72","City":"Denver","Name":"Broncos","Abbreviation":"DEN"},"homeTeam":{"ID":"60","City":"Chicago","Name":"Bears","Abbreviation":"CHI"},"location":"Soldier Field"},{"id":"30729","week":"11","scheduleStatus":"Normal","originalDate":null,"originalTime":null,"delayedOrPostponedReason":null,"date":"2015-11-22","time":"4:00PM","awayTeam":{"ID":"57","City":"Cincinnati","Name":"Bengals","Abbreviation":"CIN"},"homeTeam":{"ID":"76","City":"Arizona","Name":"Cardinals","Abbreviation":"ARI"},"location":"University of Phoenix Stadium"},{"id":"33915","week":"11","scheduleStatus":"Normal","originalDate":null,"originalTime":null,"delayedOrPostponedReason":null,"date":"2015-11-22","time":"4:00PM","awayTeam":{"ID":"55","City":"Washington","Name":"Redskins","Abbreviation":"WAS"},"homeTeam":{"ID":"69","City":"Carolina","Name":"Panthers","Abbreviation":"CAR"},"location":"Bank of America Stadium"},{"id":"30730","week":"11","scheduleStatus":"Normal","originalDate":null,"originalTime":null,"delayedOrPostponedReason":null,"date":"2015-11-22","time":"4:30PM","awayTeam":{"ID":"78","City":"San Francisco","Name":"49ers","Abbreviation":"SF"},"homeTeam":{"ID":"79","City":"Seattle","Name":"Seahawks","Abbreviation":"SEA"},"location":"CenturyLink Field"},{"id":"30731","week":"11","scheduleStatus":"Normal","originalDate":null,"originalTime":null,"delayedOrPostponedReason":null,"date":"2015-11-22","time":"8:30PM","awayTeam":{"ID":"73","City":"Kansas City","Name":"Chiefs","Abbreviation":"KC"},"homeTeam":{"ID":"75","City":"San Diego","Name":"Chargers","Abbreviation":"SD"},"location":"Qualcomm Stadium"},{"id":"33871","week":"11","scheduleStatus":"Normal","originalDate":null,"originalTime":null,"delayedOrPostponedReason":null,"date":"2015-11-22","time":"8:30PM","awayTeam":{"ID":"77","City":"St. Louis","Name":"Rams","Abbreviation":"STL"},"homeTeam":{"ID":"56","City":"Baltimore","Name":"Ravens","Abbreviation":"BAL"},"location":"M&T Bank Stadium"},{"id":"33893","week":"11","scheduleStatus":"Normal","originalDate":null,"originalTime":null,"delayedOrPostponedReason":null,"date":"2015-11-22","time":"8:30PM","awayTeam":{"ID":"71","City":"Tampa Bay","Name":"Buccaneers","Abbreviation":"TB"},"homeTeam":{"ID":"54","City":"Philadelphia","Name":"Eagles","Abbreviation":"PHI"},"location":"Lincoln Financial Field"},{"id":"32556","week":"11","scheduleStatus":"Normal","originalDate":null,"originalTime":null,"delayedOrPostponedReason":null,"date":"2015-11-23","time":"8:30PM","awayTeam":{"ID":"48","City":"Buffalo","Name":"Bills","Abbreviation":"BUF"},"homeTeam":{"ID":"50","City":"New England","Name":"Patriots","Abbreviation":"NE"},"location":"Gillette Stadium"},{"id":"30733","week":"12","scheduleStatus":"Normal","originalDate":null,"originalTime":null,"delayedOrPostponedReason":null,"date":"2015-11-26","time":"12:30PM","awayTeam":{"ID":"54","City":"Philadelphia","Name":"Eagles","Abbreviation":"PHI"},"homeTeam":{"ID":"61","City":"Detroit","Name":"Lions","Abbreviation":"DET"},"location":"Ford Field"},{"id":"30734","week":"12","scheduleStatus":"Normal","originalDate":null,"originalTime":null,"delayedOrPostponedReason":null,"date":"2015-11-26","time":"4:30PM","awayTeam":{"ID":"69","City":"Carolina","Name":"Panthers","Abbreviation":"CAR"},"homeTeam":{"ID":"52","City":"Dallas","Name":"Cowboys","Abbreviation":"DAL"},"location":"AT&T Stadium"},{"id":"33885","week":"12","scheduleStatus":"Normal","originalDate":null,"originalTime":null,"delayedOrPostponedReason":null,"date":"2015-11-26","time":"8:30PM","awayTeam":{"ID":"60","City":"Chicago","Name":"Bears","Abbreviation":"CHI"},"homeTeam":{"ID":"62","City":"Green Bay","Name":"Packers","Abbreviation":"GB"},"location":"Lambeau Field"},{"id":"30736","week":"12","scheduleStatus":"Normal","originalDate":null,"originalTime":null,"delayedOrPostponedReason":null,"date":"2015-11-29","time":"1:00PM","awayTeam":{"ID":"63","City":"Minnesota","Name":"Vikings","Abbreviation":"MIN"},"homeTeam":{"ID":"68","City":"Atlanta","Name":"Falcons","Abbreviation":"ATL"},"location":"Georgia Dome"},{"id":"30737","week":"12","scheduleStatus":"Normal","originalDate":null,"originalTime":null,"delayedOrPostponedReason":null,"date":"2015-11-29","time":"1:00PM","awayTeam":{"ID":"77","City":"St. Louis","Name":"Rams","Abbreviation":"STL"},"homeTeam":{"ID":"57","City":"Cincinnati","Name":"Bengals","Abbreviation":"CIN"},"location":"Paul Brown Stadium"},{"id":"30738","week":"12","scheduleStatus":"Normal","originalDate":null,"originalTime":null,"delayedOrPostponedReason":null,"date":"2015-11-29","time":"1:00PM","awayTeam":{"ID":"70","City":"New Orleans","Name":"Saints","Abbreviation":"NO"},"homeTeam":{"ID":"64","City":"Houston","Name":"Texans","Abbreviation":"HOU"},"location":"NRG Stadium"},{"id":"30739","week":"12","scheduleStatus":"Normal","originalDate":null,"originalTime":null,"delayedOrPostponedReason":null,"date":"2015-11-29","time":"1:00PM","awayTeam":{"ID":"71","City":"Tampa Bay","Name":"Buccaneers","Abbreviation":"TB"},"homeTeam":{"ID":"65","City":"Indianapolis","Name":"Colts","Abbreviation":"IND"},"location":"Lucas Oil Stadium"},{"id":"30742","week":"12","scheduleStatus":"Normal","originalDate":null,"originalTime":null,"delayedOrPostponedReason":null,"date":"2015-11-29","time":"1:00PM","awayTeam":{"ID":"49","City":"Miami","Name":"Dolphins","Abbreviation":"MIA"},"homeTeam":{"ID":"51","City":"New York","Name":"Jets","Abbreviation":"NYJ"},"location":"MetLife Stadium"},{"id":"30743","week":"12","scheduleStatus":"Normal","originalDate":null,"originalTime":null,"delayedOrPostponedReason":null,"date":"2015-11-29","time":"1:00PM","awayTeam":{"ID":"74","City":"Oakland","Name":"Raiders","Abbreviation":"OAK"},"homeTeam":{"ID":"67","City":"Tennessee","Name":"Titans","Abbreviation":"TEN"},"location":"Nissan Stadium"},{"id":"30744","week":"12","scheduleStatus":"Normal","originalDate":null,"originalTime":null,"delayedOrPostponedReason":null,"date":"2015-11-29","time":"1:00PM","awayTeam":{"ID":"53","City":"New York","Name":"Giants","Abbreviation":"NYG"},"homeTeam":{"ID":"55","City":"Washington","Name":"Redskins","Abbreviation":"WAS"},"location":"FedEx Field"},{"id":"32564","week":"12","scheduleStatus":"Normal","originalDate":null,"originalTime":null,"delayedOrPostponedReason":null,"date":"2015-11-29","time":"2:00PM","awayTeam":{"ID":"75","City":"San Diego","Name":"Chargers","Abbreviation":"SD"},"homeTeam":{"ID":"66","City":"Jacksonville","Name":"Jaguars","Abbreviation":"JAX"},"location":"EverBank Field"},{"id":"30745","week":"12","scheduleStatus":"Normal","originalDate":null,"originalTime":null,"delayedOrPostponedReason":null,"date":"2015-11-29","time":"4:00PM","awayTeam":{"ID":"76","City":"Arizona","Name":"Cardinals","Abbreviation":"ARI"},"homeTeam":{"ID":"78","City":"San Francisco","Name":"49ers","Abbreviation":"SF"},"location":"Levi's Stadium"},{"id":"30746","week":"12","scheduleStatus":"Normal","originalDate":null,"originalTime":null,"delayedOrPostponedReason":null,"date":"2015-11-29","time":"4:30PM","awayTeam":{"ID":"59","City":"Pittsburgh","Name":"Steelers","Abbreviation":"PIT"},"homeTeam":{"ID":"79","City":"Seattle","Name":"Seahawks","Abbreviation":"SEA"},"location":"CenturyLink Field"},{"id":"30747","week":"12","scheduleStatus":"Normal","originalDate":null,"originalTime":null,"delayedOrPostponedReason":null,"date":"2015-11-29","time":"8:30PM","awayTeam":{"ID":"50","City":"New England","Name":"Patriots","Abbreviation":"NE"},"homeTeam":{"ID":"72","City":"Denver","Name":"Broncos","Abbreviation":"DEN"},"location":"Sports Authority Field at Mile High"},{"id":"33904","week":"12","scheduleStatus":"Normal","originalDate":null,"originalTime":null,"delayedOrPostponedReason":null,"date":"2015-11-29","time":"8:30PM","awayTeam":{"ID":"48","City":"Buffalo","Name":"Bills","Abbreviation":"BUF"},"homeTeam":{"ID":"73","City":"Kansas City","Name":"Chiefs","Abbreviation":"KC"},"location":"Arrowhead Stadium"},{"id":"33925","week":"12","scheduleStatus":"Normal","originalDate":null,"originalTime":null,"delayedOrPostponedReason":null,"date":"2015-11-30","time":"4:00PM","awayTeam":{"ID":"56","City":"Baltimore","Name":"Ravens","Abbreviation":"BAL"},"homeTeam":{"ID":"58","City":"Cleveland","Name":"Browns","Abbreviation":"CLE"},"location":"FirstEnergy Stadium"},{"id":"33918","week":"13","scheduleStatus":"Normal","originalDate":null,"originalTime":null,"delayedOrPostponedReason":null,"date":"2015-12-03","time":"4:00PM","awayTeam":{"ID":"62","City":"Green Bay","Name":"Packers","Abbreviation":"GB"},"homeTeam":{"ID":"61","City":"Detroit","Name":"Lions","Abbreviation":"DET"},"location":"Ford Field"},{"id":"30750","week":"13","scheduleStatus":"Normal","originalDate":null,"originalTime":null,"delayedOrPostponedReason":null,"date":"2015-12-06","time":"1:00PM","awayTeam":{"ID":"64","City":"Houston","Name":"Texans","Abbreviation":"HOU"},"homeTeam":{"ID":"48","City":"Buffalo","Name":"Bills","Abbreviation":"BUF"},"location":"New Era Field"},{"id":"30751","week":"13","scheduleStatus":"Normal","originalDate":null,"originalTime":null,"delayedOrPostponedReason":null,"date":"2015-12-06","time":"1:00PM","awayTeam":{"ID":"78","City":"San Francisco","Name":"49ers","Abbreviation":"SF"},"homeTeam":{"ID":"60","City":"Chicago","Name":"Bears","Abbreviation":"CHI"},"location":"Soldier Field"},{"id":"30752","week":"13","scheduleStatus":"Normal","originalDate":null,"originalTime":null,"delayedOrPostponedReason":null,"date":"2015-12-06","time":"1:00PM","awayTeam":{"ID":"57","City":"Cincinnati","Name":"Bengals","Abbreviation":"CIN"},"homeTeam":{"ID":"58","City":"Cleveland","Name":"Browns","Abbreviation":"CLE"},"location":"FirstEnergy Stadium"},{"id":"30754","week":"13","scheduleStatus":"Normal","originalDate":null,"originalTime":null,"delayedOrPostponedReason":null,"date":"2015-12-06","time":"1:00PM","awayTeam":{"ID":"79","City":"Seattle","Name":"Seahawks","Abbreviation":"SEA"},"homeTeam":{"ID":"63","City":"Minnesota","Name":"Vikings","Abbreviation":"MIN"},"location":"TCF Bank Stadium"},{"id":"30756","week":"13","scheduleStatus":"Normal","originalDate":null,"originalTime":null,"delayedOrPostponedReason":null,"date":"2015-12-06","time":"1:00PM","awayTeam":{"ID":"51","City":"New York","Name":"Jets","Abbreviation":"NYJ"},"homeTeam":{"ID":"53","City":"New York","Name":"Giants","Abbreviation":"NYG"},"location":"MetLife Stadium"},{"id":"30757","week":"13","scheduleStatus":"Normal","originalDate":null,"originalTime":null,"delayedOrPostponedReason":null,"date":"2015-12-06","time":"1:00PM","awayTeam":{"ID":"76","City":"Arizona","Name":"Cardinals","Abbreviation":"ARI"},"homeTeam":{"ID":"77","City":"St. Louis","Name":"Rams","Abbreviation":"STL"},"location":"Edward Jones Dome"},{"id":"30758","week":"13","scheduleStatus":"Normal","originalDate":null,"originalTime":null,"delayedOrPostponedReason":null,"date":"2015-12-06","time":"1:00PM","awayTeam":{"ID":"68","City":"Atlanta","Name":"Falcons","Abbreviation":"ATL"},"homeTeam":{"ID":"71","City":"Tampa Bay","Name":"Buccaneers","Abbreviation":"TB"},"location":"Raymond James Stadium"},{"id":"30759","week":"13","scheduleStatus":"Normal","originalDate":null,"originalTime":null,"delayedOrPostponedReason":null,"date":"2015-12-06","time":"1:00PM","awayTeam":{"ID":"66","City":"Jacksonville","Name":"Jaguars","Abbreviation":"JAX"},"homeTeam":{"ID":"67","City":"Tennessee","Name":"Titans","Abbreviation":"TEN"},"location":"Nissan Stadium"},{"id":"33878","week":"13","scheduleStatus":"Normal","originalDate":null,"originalTime":null,"delayedOrPostponedReason":null,"date":"2015-12-06","time":"2:00PM","awayTeam":{"ID":"56","City":"Baltimore","Name":"Ravens","Abbreviation":"BAL"},"homeTeam":{"ID":"49","City":"Miami","Name":"Dolphins","Abbreviation":"MIA"},"location":"Sun Life Stadium"},{"id":"30761","week":"13","scheduleStatus":"Normal","originalDate":null,"originalTime":null,"delayedOrPostponedReason":null,"date":"2015-12-06","time":"4:00PM","awayTeam":{"ID":"72","City":"Denver","Name":"Broncos","Abbreviation":"DEN"},"homeTeam":{"ID":"75","City":"San Diego","Name":"Chargers","Abbreviation":"SD"},"location":"Qualcomm Stadium"},{"id":"33866","week":"13","scheduleStatus":"Normal","originalDate":null,"originalTime":null,"delayedOrPostponedReason":null,"date":"2015-12-06","time":"4:00PM","awayTeam":{"ID":"73","City":"Kansas City","Name":"Chiefs","Abbreviation":"KC"},"homeTeam":{"ID":"74","City":"Oakland","Name":"Raiders","Abbreviation":"OAK"},"location":"O.co Coliseum"},{"id":"30762","week":"13","scheduleStatus":"Normal","originalDate":null,"originalTime":null,"delayedOrPostponedReason":null,"date":"2015-12-06","time":"4:30PM","awayTeam":{"ID":"54","City":"Philadelphia","Name":"Eagles","Abbreviation":"PHI"},"homeTeam":{"ID":"50","City":"New England","Name":"Patriots","Abbreviation":"NE"},"location":"Gillette Stadium"},{"id":"32616","week":"13","scheduleStatus":"Normal","originalDate":null,"originalTime":null,"delayedOrPostponedReason":null,"date":"2015-12-06","time":"8:30PM","awayTeam":{"ID":"69","City":"Carolina","Name":"Panthers","Abbreviation":"CAR"},"homeTeam":{"ID":"70","City":"New Orleans","Name":"Saints","Abbreviation":"NO"},"location":"Mercedes-Benz Stadium"},{"id":"33877","week":"13","scheduleStatus":"Normal","originalDate":null,"originalTime":null,"delayedOrPostponedReason":null,"date":"2015-12-06","time":"8:30PM","awayTeam":{"ID":"65","City":"Indianapolis","Name":"Colts","Abbreviation":"IND"},"homeTeam":{"ID":"59","City":"Pittsburgh","Name":"Steelers","Abbreviation":"PIT"},"location":"Heinz Field"},{"id":"30764","week":"13","scheduleStatus":"Normal","originalDate":null,"originalTime":null,"delayedOrPostponedReason":null,"date":"2015-12-07","time":"8:30PM","awayTeam":{"ID":"52","City":"Dallas","Name":"Cowboys","Abbreviation":"DAL"},"homeTeam":{"ID":"55","City":"Washington","Name":"Redskins","Abbreviation":"WAS"},"location":"FedEx Field"},{"id":"32588","week":"14","scheduleStatus":"Normal","originalDate":null,"originalTime":null,"delayedOrPostponedReason":null,"date":"2015-12-10","time":"8:30PM","awayTeam":{"ID":"63","City":"Minnesota","Name":"Vikings","Abbreviation":"MIN"},"homeTeam":{"ID":"76","City":"Arizona","Name":"Cardinals","Abbreviation":"ARI"},"location":"University of Phoenix Stadium"},{"id":"30766","week":"14","scheduleStatus":"Normal","originalDate":null,"originalTime":null,"delayedOrPostponedReason":null,"date":"2015-12-13","time":"1:00PM","awayTeam":{"ID":"68","City":"Atlanta","Name":"Falcons","Abbreviation":"ATL"},"homeTeam":{"ID":"69","City":"Carolina","Name":"Panthers","Abbreviation":"CAR"},"location":"Bank of America Stadium"},{"id":"30767","week":"14","scheduleStatus":"Normal","originalDate":null,"originalTime":null,"delayedOrPostponedReason":null,"date":"2015-12-13","time":"1:00PM","awayTeam":{"ID":"55","City":"Washington","Name":"Redskins","Abbreviation":"WAS"},"homeTeam":{"ID":"60","City":"Chicago","Name":"Bears","Abbreviation":"CHI"},"location":"Soldier Field"},{"id":"30768","week":"14","scheduleStatus":"Normal","originalDate":null,"originalTime":null,"delayedOrPostponedReason":null,"date":"2015-12-13","time":"1:00PM","awayTeam":{"ID":"59","City":"Pittsburgh","Name":"Steelers","Abbreviation":"PIT"},"homeTeam":{"ID":"57","City":"Cincinnati","Name":"Bengals","Abbreviation":"CIN"},"location":"Paul Brown Stadium"},{"id":"30769","week":"14","scheduleStatus":"Normal","originalDate":null,"originalTime":null,"delayedOrPostponedReason":null,"date":"2015-12-13","time":"1:00PM","awayTeam":{"ID":"78","City":"San Francisco","Name":"49ers","Abbreviation":"SF"},"homeTeam":{"ID":"58","City":"Cleveland","Name":"Browns","Abbreviation":"CLE"},"location":"FirstEnergy Stadium"},{"id":"30770","week":"14","scheduleStatus":"Normal","originalDate":null,"originalTime":null,"delayedOrPostponedReason":null,"date":"2015-12-13","time":"1:00PM","awayTeam":{"ID":"50","City":"New England","Name":"Patriots","Abbreviation":"NE"},"homeTeam":{"ID":"64","City":"Houston","Name":"Texans","Abbreviation":"HOU"},"location":"NRG Stadium"},{"id":"30772","week":"14","scheduleStatus":"Normal","originalDate":null,"originalTime":null,"delayedOrPostponedReason":null,"date":"2015-12-13","time":"1:00PM","awayTeam":{"ID":"75","City":"San Diego","Name":"Chargers","Abbreviation":"SD"},"homeTeam":{"ID":"73","City":"Kansas City","Name":"Chiefs","Abbreviation":"KC"},"location":"Arrowhead Stadium"},{"id":"30773","week":"14","scheduleStatus":"Normal","originalDate":null,"originalTime":null,"delayedOrPostponedReason":null,"date":"2015-12-13","time":"1:00PM","awayTeam":{"ID":"67","City":"Tennessee","Name":"Titans","Abbreviation":"TEN"},"homeTeam":{"ID":"51","City":"New York","Name":"Jets","Abbreviation":"NYJ"},"location":"MetLife Stadium"},{"id":"30775","week":"14","scheduleStatus":"Normal","originalDate":null,"originalTime":null,"delayedOrPostponedReason":null,"date":"2015-12-13","time":"1:00PM","awayTeam":{"ID":"61","City":"Detroit","Name":"Lions","Abbreviation":"DET"},"homeTeam":{"ID":"77","City":"St. Louis","Name":"Rams","Abbreviation":"STL"},"location":"Edward Jones Dome"},{"id":"30776","week":"14","scheduleStatus":"Normal","originalDate":null,"originalTime":null,"delayedOrPostponedReason":null,"date":"2015-12-13","time":"1:00PM","awayTeam":{"ID":"70","City":"New Orleans","Name":"Saints","Abbreviation":"NO"},"homeTeam":{"ID":"71","City":"Tampa Bay","Name":"Buccaneers","Abbreviation":"TB"},"location":"Raymond James Stadium"},{"id":"32621","week":"14","scheduleStatus":"Normal","originalDate":null,"originalTime":null,"delayedOrPostponedReason":null,"date":"2015-12-13","time":"2:00PM","awayTeam":{"ID":"48","City":"Buffalo","Name":"Bills","Abbreviation":"BUF"},"homeTeam":{"ID":"54","City":"Philadelphia","Name":"Eagles","Abbreviation":"PHI"},"location":"Lincoln Financial Field"},{"id":"30777","week":"14","scheduleStatus":"Normal","originalDate":null,"originalTime":null,"delayedOrPostponedReason":null,"date":"2015-12-13","time":"4:00PM","awayTeam":{"ID":"74","City":"Oakland","Name":"Raiders","Abbreviation":"OAK"},"homeTeam":{"ID":"72","City":"Denver","Name":"Broncos","Abbreviation":"DEN"},"location":"Sports Authority Field at Mile High"},{"id":"30778","week":"14","scheduleStatus":"Normal","originalDate":null,"originalTime":null,"delayedOrPostponedReason":null,"date":"2015-12-13","time":"4:30PM","awayTeam":{"ID":"52","City":"Dallas","Name":"Cowboys","Abbreviation":"DAL"},"homeTeam":{"ID":"62","City":"Green Bay","Name":"Packers","Abbreviation":"GB"},"location":"Lambeau Field"},{"id":"30779","week":"14","scheduleStatus":"Normal","originalDate":null,"originalTime":null,"delayedOrPostponedReason":null,"date":"2015-12-13","time":"8:30PM","awayTeam":{"ID":"79","City":"Seattle","Name":"Seahawks","Abbreviation":"SEA"},"homeTeam":{"ID":"56","City":"Baltimore","Name":"Ravens","Abbreviation":"BAL"},"location":"M&T Bank Stadium"},{"id":"33938","week":"14","scheduleStatus":"Normal","originalDate":null,"originalTime":null,"delayedOrPostponedReason":null,"date":"2015-12-13","time":"8:30PM","awayTeam":{"ID":"65","City":"Indianapolis","Name":"Colts","Abbreviation":"IND"},"homeTeam":{"ID":"66","City":"Jacksonville","Name":"Jaguars","Abbreviation":"JAX"},"location":"EverBank Field"},{"id":"32569","week":"14","scheduleStatus":"Normal","originalDate":null,"originalTime":null,"delayedOrPostponedReason":null,"date":"2015-12-14","time":"8:00PM","awayTeam":{"ID":"53","City":"New York","Name":"Giants","Abbreviation":"NYG"},"homeTeam":{"ID":"49","City":"Miami","Name":"Dolphins","Abbreviation":"MIA"},"location":"Sun Life Stadium"},{"id":"32576","week":"15","scheduleStatus":"Normal","originalDate":null,"originalTime":null,"delayedOrPostponedReason":null,"date":"2015-12-17","time":"8:30PM","awayTeam":{"ID":"71","City":"Tampa Bay","Name":"Buccaneers","Abbreviation":"TB"},"homeTeam":{"ID":"77","City":"St. Louis","Name":"Rams","Abbreviation":"STL"},"location":"Edward Jones Dome"},{"id":"30782","week":"15","scheduleStatus":"Normal","originalDate":null,"originalTime":null,"delayedOrPostponedReason":null,"date":"2015-12-19","time":"8:30PM","awayTeam":{"ID":"51","City":"New York","Name":"Jets","Abbreviation":"NYJ"},"homeTeam":{"ID":"52","City":"Dallas","Name":"Cowboys","Abbreviation":"DAL"},"location":"AT&T Stadium"},{"id":"30783","week":"15","scheduleStatus":"Normal","originalDate":null,"originalTime":null,"delayedOrPostponedReason":null,"date":"2015-12-20","time":"1:00PM","awayTeam":{"ID":"73","City":"Kansas City","Name":"Chiefs","Abbreviation":"KC"},"homeTeam":{"ID":"56","City":"Baltimore","Name":"Ravens","Abbreviation":"BAL"},"location":"M&T Bank Stadium"},{"id":"30785","week":"15","scheduleStatus":"Normal","originalDate":null,"originalTime":null,"delayedOrPostponedReason":null,"date":"2015-12-20","time":"1:00PM","awayTeam":{"ID":"68","City":"Atlanta","Name":"Falcons","Abbreviation":"ATL"},"homeTeam":{"ID":"66","City":"Jacksonville","Name":"Jaguars","Abbreviation":"JAX"},"location":"EverBank Field"},{"id":"30786","week":"15","scheduleStatus":"Normal","originalDate":null,"originalTime":null,"delayedOrPostponedReason":null,"date":"2015-12-20","time":"1:00PM","awayTeam":{"ID":"60","City":"Chicago","Name":"Bears","Abbreviation":"CHI"},"homeTeam":{"ID":"63","City":"Minnesota","Name":"Vikings","Abbreviation":"MIN"},"location":"TCF Bank Stadium"},{"id":"30787","week":"15","scheduleStatus":"Normal","originalDate":null,"originalTime":null,"delayedOrPostponedReason":null,"date":"2015-12-20","time":"1:00PM","awayTeam":{"ID":"67","City":"Tennessee","Name":"Titans","Abbreviation":"TEN"},"homeTeam":{"ID":"50","City":"New England","Name":"Patriots","Abbreviation":"NE"},"location":"Gillette Stadium"},{"id":"30790","week":"15","scheduleStatus":"Normal","originalDate":null,"originalTime":null,"delayedOrPostponedReason":null,"date":"2015-12-20","time":"1:00PM","awayTeam":{"ID":"48","City":"Buffalo","Name":"Bills","Abbreviation":"BUF"},"homeTeam":{"ID":"55","City":"Washington","Name":"Redskins","Abbreviation":"WAS"},"location":"FedEx Field"},{"id":"33898","week":"15","scheduleStatus":"Normal","originalDate":null,"originalTime":null,"delayedOrPostponedReason":null,"date":"2015-12-20","time":"2:00PM","awayTeam":{"ID":"76","City":"Arizona","Name":"Cardinals","Abbreviation":"ARI"},"homeTeam":{"ID":"54","City":"Philadelphia","Name":"Eagles","Abbreviation":"PHI"},"location":"Lincoln Financial Field"},{"id":"30791","week":"15","scheduleStatus":"Normal","originalDate":null,"originalTime":null,"delayedOrPostponedReason":null,"date":"2015-12-20","time":"4:00PM","awayTeam":{"ID":"62","City":"Green Bay","Name":"Packers","Abbreviation":"GB"},"homeTeam":{"ID":"74","City":"Oakland","Name":"Raiders","Abbreviation":"OAK"},"location":"O.co Coliseum"},{"id":"30792","week":"15","scheduleStatus":"Normal","originalDate":null,"originalTime":null,"delayedOrPostponedReason":null,"date":"2015-12-20","time":"4:00PM","awayTeam":{"ID":"58","City":"Cleveland","Name":"Browns","Abbreviation":"CLE"},"homeTeam":{"ID":"79","City":"Seattle","Name":"Seahawks","Abbreviation":"SEA"},"location":"CenturyLink Field"},{"id":"33880","week":"15","scheduleStatus":"Normal","originalDate":null,"originalTime":null,"delayedOrPostponedReason":null,"date":"2015-12-20","time":"4:00PM","awayTeam":{"ID":"72","City":"Denver","Name":"Broncos","Abbreviation":"DEN"},"homeTeam":{"ID":"59","City":"Pittsburgh","Name":"Steelers","Abbreviation":"PIT"},"location":"Heinz Field"},{"id":"33913","week":"15","scheduleStatus":"Normal","originalDate":null,"originalTime":null,"delayedOrPostponedReason":null,"date":"2015-12-20","time":"4:00PM","awayTeam":{"ID":"69","City":"Carolina","Name":"Panthers","Abbreviation":"CAR"},"homeTeam":{"ID":"53","City":"New York","Name":"Giants","Abbreviation":"NYG"},"location":"MetLife Stadium"},{"id":"30794","week":"15","scheduleStatus":"Normal","originalDate":null,"originalTime":null,"delayedOrPostponedReason":null,"date":"2015-12-20","time":"4:30PM","awayTeam":{"ID":"49","City":"Miami","Name":"Dolphins","Abbreviation":"MIA"},"homeTeam":{"ID":"75","City":"San Diego","Name":"Chargers","Abbreviation":"SD"},"location":"Qualcomm Stadium"},{"id":"32602","week":"15","scheduleStatus":"Normal","originalDate":null,"originalTime":null,"delayedOrPostponedReason":null,"date":"2015-12-20","time":"7:00PM","awayTeam":{"ID":"64","City":"Houston","Name":"Texans","Abbreviation":"HOU"},"homeTeam":{"ID":"65","City":"Indianapolis","Name":"Colts","Abbreviation":"IND"},"location":"Lucas Oil Stadium"},{"id":"30795","week":"15","scheduleStatus":"Normal","originalDate":null,"originalTime":null,"delayedOrPostponedReason":null,"date":"2015-12-20","time":"8:30PM","awayTeam":{"ID":"57","City":"Cincinnati","Name":"Bengals","Abbreviation":"CIN"},"homeTeam":{"ID":"78","City":"San Francisco","Name":"49ers","Abbreviation":"SF"},"location":"Levi's Stadium"},{"id":"30796","week":"15","scheduleStatus":"Normal","originalDate":null,"originalTime":null,"delayedOrPostponedReason":null,"date":"2015-12-21","time":"8:30PM","awayTeam":{"ID":"61","City":"Detroit","Name":"Lions","Abbreviation":"DET"},"homeTeam":{"ID":"70","City":"New Orleans","Name":"Saints","Abbreviation":"NO"},"location":"Mercedes-Benz Stadium"},{"id":"32551","week":"16","scheduleStatus":"Normal","originalDate":null,"originalTime":null,"delayedOrPostponedReason":null,"date":"2015-12-24","time":"2:00PM","awayTeam":{"ID":"75","City":"San Diego","Name":"Chargers","Abbreviation":"SD"},"homeTeam":{"ID":"74","City":"Oakland","Name":"Raiders","Abbreviation":"OAK"},"location":"O.co Coliseum"},{"id":"30798","week":"16","scheduleStatus":"Normal","originalDate":null,"originalTime":null,"delayedOrPostponedReason":null,"date":"2015-12-26","time":"8:30PM","awayTeam":{"ID":"55","City":"Washington","Name":"Redskins","Abbreviation":"WAS"},"homeTeam":{"ID":"54","City":"Philadelphia","Name":"Eagles","Abbreviation":"PHI"},"location":"Lincoln Financial Field"},{"id":"30799","week":"16","scheduleStatus":"Normal","originalDate":null,"originalTime":null,"delayedOrPostponedReason":null,"date":"2015-12-27","time":"1:00PM","awayTeam":{"ID":"69","City":"Carolina","Name":"Panthers","Abbreviation":"CAR"},"homeTeam":{"ID":"68","City":"Atlanta","Name":"Falcons","Abbreviation":"ATL"},"location":"Georgia Dome"},{"id":"30801","week":"16","scheduleStatus":"Normal","originalDate":null,"originalTime":null,"delayedOrPostponedReason":null,"date":"2015-12-27","time":"1:00PM","awayTeam":{"ID":"78","City":"San Francisco","Name":"49ers","Abbreviation":"SF"},"homeTeam":{"ID":"61","City":"Detroit","Name":"Lions","Abbreviation":"DET"},"location":"Ford Field"},{"id":"30802","week":"16","scheduleStatus":"Normal","originalDate":null,"originalTime":null,"delayedOrPostponedReason":null,"date":"2015-12-27","time":"1:00PM","awayTeam":{"ID":"58","City":"Cleveland","Name":"Browns","Abbreviation":"CLE"},"homeTeam":{"ID":"73","City":"Kansas City","Name":"Chiefs","Abbreviation":"KC"},"location":"Arrowhead Stadium"},{"id":"30803","week":"16","scheduleStatus":"Normal","originalDate":null,"originalTime":null,"delayedOrPostponedReason":null,"date":"2015-12-27","time":"1:00PM","awayTeam":{"ID":"65","City":"Indianapolis","Name":"Colts","Abbreviation":"IND"},"homeTeam":{"ID":"49","City":"Miami","Name":"Dolphins","Abbreviation":"MIA"},"location":"Sun Life Stadium"},{"id":"30805","week":"16","scheduleStatus":"Normal","originalDate":null,"originalTime":null,"delayedOrPostponedReason":null,"date":"2015-12-27","time":"1:00PM","awayTeam":{"ID":"66","City":"Jacksonville","Name":"Jaguars","Abbreviation":"JAX"},"homeTeam":{"ID":"70","City":"New Orleans","Name":"Saints","Abbreviation":"NO"},"location":"Mercedes-Benz Stadium"},{"id":"30806","week":"16","scheduleStatus":"Normal","originalDate":null,"originalTime":null,"delayedOrPostponedReason":null,"date":"2015-12-27","time":"1:00PM","awayTeam":{"ID":"50","City":"New England","Name":"Patriots","Abbreviation":"NE"},"homeTeam":{"ID":"51","City":"New York","Name":"Jets","Abbreviation":"NYJ"},"location":"MetLife Stadium"},{"id":"30807","week":"16","scheduleStatus":"Normal","originalDate":null,"originalTime":null,"delayedOrPostponedReason":null,"date":"2015-12-27","time":"1:00PM","awayTeam":{"ID":"60","City":"Chicago","Name":"Bears","Abbreviation":"CHI"},"homeTeam":{"ID":"71","City":"Tampa Bay","Name":"Buccaneers","Abbreviation":"TB"},"location":"Raymond James Stadium"},{"id":"30808","week":"16","scheduleStatus":"Normal","originalDate":null,"originalTime":null,"delayedOrPostponedReason":null,"date":"2015-12-27","time":"1:00PM","awayTeam":{"ID":"64","City":"Houston","Name":"Texans","Abbreviation":"HOU"},"homeTeam":{"ID":"67","City":"Tennessee","Name":"Titans","Abbreviation":"TEN"},"location":"Nissan Stadium"},{"id":"30810","week":"16","scheduleStatus":"Normal","originalDate":null,"originalTime":null,"delayedOrPostponedReason":null,"date":"2015-12-27","time":"4:30PM","awayTeam":{"ID":"77","City":"St. Louis","Name":"Rams","Abbreviation":"STL"},"homeTeam":{"ID":"79","City":"Seattle","Name":"Seahawks","Abbreviation":"SEA"},"location":"CenturyLink Field"},{"id":"32604","week":"16","scheduleStatus":"Normal","originalDate":null,"originalTime":null,"delayedOrPostponedReason":null,"date":"2015-12-27","time":"8:30PM","awayTeam":{"ID":"59","City":"Pittsburgh","Name":"Steelers","Abbreviation":"PIT"},"homeTeam":{"ID":"56","City":"Baltimore","Name":"Ravens","Abbreviation":"BAL"},"location":"M&T Bank Stadium"},{"id":"33905","week":"16","scheduleStatus":"Normal","originalDate":null,"originalTime":null,"delayedOrPostponedReason":null,"date":"2015-12-27","time":"8:30PM","awayTeam":{"ID":"52","City":"Dallas","Name":"Cowboys","Abbreviation":"DAL"},"homeTeam":{"ID":"48","City":"Buffalo","Name":"Bills","Abbreviation":"BUF"},"location":"New Era Field"},{"id":"33920","week":"16","scheduleStatus":"Normal","originalDate":null,"originalTime":null,"delayedOrPostponedReason":null,"date":"2015-12-27","time":"8:30PM","awayTeam":{"ID":"62","City":"Green Bay","Name":"Packers","Abbreviation":"GB"},"homeTeam":{"ID":"76","City":"Arizona","Name":"Cardinals","Abbreviation":"ARI"},"location":"University of Phoenix Stadium"},{"id":"33922","week":"16","scheduleStatus":"Normal","originalDate":null,"originalTime":null,"delayedOrPostponedReason":null,"date":"2015-12-27","time":"8:30PM","awayTeam":{"ID":"53","City":"New York","Name":"Giants","Abbreviation":"NYG"},"homeTeam":{"ID":"63","City":"Minnesota","Name":"Vikings","Abbreviation":"MIN"},"location":"TCF Bank Stadium"},{"id":"33890","week":"16","scheduleStatus":"Normal","originalDate":null,"originalTime":null,"delayedOrPostponedReason":null,"date":"2015-12-28","time":"8:30PM","awayTeam":{"ID":"57","City":"Cincinnati","Name":"Bengals","Abbreviation":"CIN"},"homeTeam":{"ID":"72","City":"Denver","Name":"Broncos","Abbreviation":"DEN"},"location":"Sports Authority Field at Mile High"},{"id":"30816","week":"17","scheduleStatus":"Normal","originalDate":null,"originalTime":null,"delayedOrPostponedReason":null,"date":"2016-01-03","time":"1:00PM","awayTeam":{"ID":"61","City":"Detroit","Name":"Lions","Abbreviation":"DET"},"homeTeam":{"ID":"60","City":"Chicago","Name":"Bears","Abbreviation":"CHI"},"location":"Soldier Field"},{"id":"30817","week":"17","scheduleStatus":"Normal","originalDate":null,"originalTime":null,"delayedOrPostponedReason":null,"date":"2016-01-03","time":"1:00PM","awayTeam":{"ID":"56","City":"Baltimore","Name":"Ravens","Abbreviation":"BAL"},"homeTeam":{"ID":"57","City":"Cincinnati","Name":"Bengals","Abbreviation":"CIN"},"location":"Paul Brown Stadium"},{"id":"30818","week":"17","scheduleStatus":"Normal","originalDate":null,"originalTime":null,"delayedOrPostponedReason":null,"date":"2016-01-03","time":"1:00PM","awayTeam":{"ID":"59","City":"Pittsburgh","Name":"Steelers","Abbreviation":"PIT"},"homeTeam":{"ID":"58","City":"Cleveland","Name":"Browns","Abbreviation":"CLE"},"location":"FirstEnergy Stadium"},{"id":"30819","week":"17","scheduleStatus":"Normal","originalDate":null,"originalTime":null,"delayedOrPostponedReason":null,"date":"2016-01-03","time":"1:00PM","awayTeam":{"ID":"55","City":"Washington","Name":"Redskins","Abbreviation":"WAS"},"homeTeam":{"ID":"52","City":"Dallas","Name":"Cowboys","Abbreviation":"DAL"},"location":"AT&T Stadium"},{"id":"30820","week":"17","scheduleStatus":"Normal","originalDate":null,"originalTime":null,"delayedOrPostponedReason":null,"date":"2016-01-03","time":"1:00PM","awayTeam":{"ID":"63","City":"Minnesota","Name":"Vikings","Abbreviation":"MIN"},"homeTeam":{"ID":"62","City":"Green Bay","Name":"Packers","Abbreviation":"GB"},"location":"Lambeau Field"},{"id":"30822","week":"17","scheduleStatus":"Normal","originalDate":null,"originalTime":null,"delayedOrPostponedReason":null,"date":"2016-01-03","time":"1:00PM","awayTeam":{"ID":"67","City":"Tennessee","Name":"Titans","Abbreviation":"TEN"},"homeTeam":{"ID":"65","City":"Indianapolis","Name":"Colts","Abbreviation":"IND"},"location":"Lucas Oil Stadium"},{"id":"30823","week":"17","scheduleStatus":"Normal","originalDate":null,"originalTime":null,"delayedOrPostponedReason":null,"date":"2016-01-03","time":"1:00PM","awayTeam":{"ID":"74","City":"Oakland","Name":"Raiders","Abbreviation":"OAK"},"homeTeam":{"ID":"73","City":"Kansas City","Name":"Chiefs","Abbreviation":"KC"},"location":"Arrowhead Stadium"},{"id":"30824","week":"17","scheduleStatus":"Normal","originalDate":null,"originalTime":null,"delayedOrPostponedReason":null,"date":"2016-01-03","time":"1:00PM","awayTeam":{"ID":"50","City":"New England","Name":"Patriots","Abbreviation":"NE"},"homeTeam":{"ID":"49","City":"Miami","Name":"Dolphins","Abbreviation":"MIA"},"location":"Sun Life Stadium"},{"id":"32560","week":"17","scheduleStatus":"Normal","originalDate":null,"originalTime":null,"delayedOrPostponedReason":null,"date":"2016-01-03","time":"2:00PM","awayTeam":{"ID":"70","City":"New Orleans","Name":"Saints","Abbreviation":"NO"},"homeTeam":{"ID":"68","City":"Atlanta","Name":"Falcons","Abbreviation":"ATL"},"location":"Georgia Dome"},{"id":"32580","week":"17","scheduleStatus":"Normal","originalDate":null,"originalTime":null,"delayedOrPostponedReason":null,"date":"2016-01-03","time":"2:00PM","awayTeam":{"ID":"71","City":"Tampa Bay","Name":"Buccaneers","Abbreviation":"TB"},"homeTeam":{"ID":"69","City":"Carolina","Name":"Panthers","Abbreviation":"CAR"},"location":"Bank of America Stadium"},{"id":"33910","week":"17","scheduleStatus":"Normal","originalDate":null,"originalTime":null,"delayedOrPostponedReason":null,"date":"2016-01-03","time":"2:00PM","awayTeam":{"ID":"51","City":"New York","Name":"Jets","Abbreviation":"NYJ"},"homeTeam":{"ID":"48","City":"Buffalo","Name":"Bills","Abbreviation":"BUF"},"location":"New Era Field"},{"id":"33929","week":"17","scheduleStatus":"Normal","originalDate":null,"originalTime":null,"delayedOrPostponedReason":null,"date":"2016-01-03","time":"2:00PM","awayTeam":{"ID":"66","City":"Jacksonville","Name":"Jaguars","Abbreviation":"JAX"},"homeTeam":{"ID":"64","City":"Houston","Name":"Texans","Abbreviation":"HOU"},"location":"NRG Stadium"},{"id":"30826","week":"17","scheduleStatus":"Normal","originalDate":null,"originalTime":null,"delayedOrPostponedReason":null,"date":"2016-01-03","time":"4:30PM","awayTeam":{"ID":"79","City":"Seattle","Name":"Seahawks","Abbreviation":"SEA"},"homeTeam":{"ID":"76","City":"Arizona","Name":"Cardinals","Abbreviation":"ARI"},"location":"University of Phoenix Stadium"},{"id":"30828","week":"17","scheduleStatus":"Normal","originalDate":null,"originalTime":null,"delayedOrPostponedReason":null,"date":"2016-01-03","time":"4:30PM","awayTeam":{"ID":"77","City":"St. Louis","Name":"Rams","Abbreviation":"STL"},"homeTeam":{"ID":"78","City":"San Francisco","Name":"49ers","Abbreviation":"SF"},"location":"Levi's Stadium"},{"id":"33889","week":"17","scheduleStatus":"Normal","originalDate":null,"originalTime":null,"delayedOrPostponedReason":null,"date":"2016-01-03","time":"8:30PM","awayTeam":{"ID":"75","City":"San Diego","Name":"Chargers","Abbreviation":"SD"},"homeTeam":{"ID":"72","City":"Denver","Name":"Broncos","Abbreviation":"DEN"},"location":"Sports Authority Field at Mile High"},{"id":"33940","week":"17","scheduleStatus":"Normal","originalDate":null,"originalTime":null,"delayedOrPostponedReason":null,"date":"2016-01-03","time":"8:30PM","awayTeam":{"ID":"54","City":"Philadelphia","Name":"Eagles","Abbreviation":"PHI"},"homeTeam":{"ID":"53","City":"New York","Name":"Giants","Abbreviation":"NYG"},"location":"MetLife Stadium"}]}}