{"fullgameschedule":{"lastUpdatedOn":"2018-02-02 2:03:24 PM","gameentry":[{"id":"30561","week":"18","scheduleStatus":"Normal","originalDate":null,"originalTime":null,"delayedOrPostponedReason":null,"date":"2015-01-03","time":"4:30PM","awayTeam":{"ID":"76","City":"Arizona","Name":"Cardinals","Abbreviation":"ARI"},"homeTeam":{"ID":"69","City":"Carolina","Name":"Panthers","Abbreviation":"CAR"},"location":"Bank of America Stadium"},{"id":"30562","week":"18","scheduleStatus":"Normal","originalDate":null,"originalTime":null,"delayedOrPostponedReason":null,"date":"2015-01-03","time":"4:30PM","awayTeam":{"ID":"56","City":"Baltimore","Name":"Ravens","Abbreviation":"BAL"},"homeTeam":{"ID":"59","City":"Pittsburgh","Name":"Steelers","Abbreviation":"PIT"},"location":"Heinz Field"},{"id":"30563","week":"18","scheduleStatus":"Normal","originalDate":null,"originalTime":null,"delayedOrPostponedReason":null,"date":"2015-01-04","time":"4:30PM","awayTeam":{"ID":"57","City":"Cincinnati","Name":"Bengals","Abbreviation":"CIN"},"homeTeam":{"ID":"65","City":"Indianapolis","Name":"Colts","Abbreviation":"IND"},"location":"Lucas Oil Stadium"},{"id":"30564","week":"18","scheduleStatus":"Normal","originalDate":null,"originalTime":null,"delayedOrPostponedReason":null,"date":"2015-01-04","time":"4:30PM","awayTeam":{"ID":"61","City":"Detroit","Name":"Lions","Abbreviation":"DET"},"homeTeam":{"ID":"52","City":"Dallas","Name":"Cowboys","Abbreviation":"DAL"},"location":"AT&T Stadium"},{"id":"30566","week":"19","scheduleStatus":"Normal","originalDate":null,"originalTime":null,"delayedOrPostponedReason":null,"date":"2015-01-10","time":"7:30PM","awayTeam":{"ID":"69","City":"Carolina","Name":"Panthers","Abbreviation":"CAR"},"homeTeam":{"ID":"79","City":"Seattle","Name":"Seahawks","Abbreviation":"SEA"},"location":"CenturyLink Field"},{"id":"30565","week":"19","scheduleStatus":"Normal","originalDate":null,"originalTime":null,"delayedOrPostponedReason":null,"date":"2015-01-10","time":"7:30PM","awayTeam":{"ID":"56","City":"Baltimore","Name":"Ravens","Abbreviation":"BAL"},"homeTeam":{"ID":"50","City":"New England","Name":"Patriots","Abbreviation":"NE"},"location":"Gillette Stadium"},{"id":"30567","week":"19","scheduleStatus":"Normal","originalDate":null,"originalTime":null,"delayedOrPostponedReason":null,"date":"2015-01-11","time":"4:30PM","awayTeam":{"ID":"52","City":"Dallas","Name":"Cowboys","Abbreviation":"DAL"},"homeTeam":{"ID":"62","City":"Green Bay","Name":"Packers","Abbreviation":"GB"},"location":"Lambeau Field"},{"id":"30568","week":"19","scheduleStatus":"Normal","originalDate":null,"originalTime":null,"delayedOrPostponedReason":null,"date":"2015-01-11","time":"7:30PM","awayTeam":{"ID":"65","City":"Indianapolis","Name":"Colts","Abbreviation":"IND"},"homeTeam":{"ID":"72","City":"Denver","Name":"Broncos","Abbreviation":"DEN"},"location":"Sports Authority Field at Mile High"},{"id":"30569","week":"20","scheduleStatus":"Normal","originalDate":null,"originalTime":null,"delayedOrPostponedReason":null,"date":"2015-01-18","time":"7:00PM","awayTeam":{"ID":"62","City":"Green Bay","Name":"Packers","Abbreviation":"GB"},"homeTeam":{"ID":"79","City":"Seattle","Name":"Seahawks","Abbreviation":"SEA"},"location":"CenturyLink Field"},{"id":"30570","week":"20","scheduleStatus":"Normal","originalDate":null,"originalTime":null,"delayedOrPostponedReason":null,"date":"2015-01-18","time":"7:00PM","awayTeam":{"ID":"65","City":"Indianapolis","Name":"Colts","Abbreviation":"IND"},"homeTeam":{"ID":"50","City":"New England","Name":"Patriots","Abbreviation":"NE"},"location":"Gillette Stadium"},{"id":"30571","week":"22","scheduleStatus":"Normal","originalDate":null,"originalTime":null,"delayedOrPostponedReason":null,"date":"2015-02-01","time":"7:30PM","awayTeam":{"ID":"50","City":"New England","Name":"Patriots","Abbreviation":"NE"},"homeTeam":{"ID":"79","City":"Seattle","Name":"Seahawks","Abbreviation":"SEA"},"location":"CenturyLink Field"}]}}